[
  {
    "market_id":"783edfaf10ef",
    "name":"성정시장",
    "sido":"충청남도",
    "sigungu":"천안시",
    "cycle_raw":"매일",
    "cycle_label":"매일",
    "cycle_days":[

    ],
    "type_show":"상설",
    "address":"충청남도 천안시 서북구 양지21길 31",
    "lat":36.81267105,
    "lng":127.1392027
  },
  {
    "market_id":"764bf397b23d",
    "name":"일동전통시장",
    "sido":"경기도",
    "sigungu":"포천시",
    "cycle_raw":"매일",
    "cycle_label":"매일",
    "cycle_days":[

    ],
    "type_show":"상설",
    "address":"경기도 포천시 일동면 화동로 1090-14",
    "lat":37.95978103,
    "lng":127.3194792
  },
  {
    "market_id":"f6127bae521e",
    "name":"운천전통시장",
    "sido":"경기도",
    "sigungu":"포천시",
    "cycle_raw":"4일+9일",
    "cycle_label":"4·9",
    "cycle_days":[
      4,
      9
    ],
    "type_show":"4·9장",
    "address":"경기도 포천시 영북면 영북로 177번길 25",
    "lat":38.0899666,
    "lng":127.2722253
  },
  {
    "market_id":"43f3c3cf21ed",
    "name":"통복시장",
    "sido":"경기도",
    "sigungu":"평택시",
    "cycle_raw":"5일+10일",
    "cycle_label":"5·10",
    "cycle_days":[
      5,
      10
    ],
    "type_show":"5·10장",
    "address":"경기도 평택시 통복시장로25번길 10",
    "lat":36.99782533,
    "lng":127.0850763
  },
  {
    "market_id":"d31c3f4c3cf0",
    "name":"송탄시장",
    "sido":"경기도",
    "sigungu":"평택시",
    "cycle_raw":"4일+9일",
    "cycle_label":"4·9",
    "cycle_days":[
      4,
      9
    ],
    "type_show":"4·9장",
    "address":"경기도 평택시 탄현로346번길 38",
    "lat":37.08146214,
    "lng":127.0567273
  },
  {
    "market_id":"c8c08458e0ff",
    "name":"안중시장",
    "sido":"경기도",
    "sigungu":"평택시",
    "cycle_raw":"1일+6일",
    "cycle_label":"1·6",
    "cycle_days":[
      1,
      6
    ],
    "type_show":"1·6장",
    "address":"경기도 평택시 안중읍 안현로서3길 34",
    "lat":36.98766055,
    "lng":126.9276616
  },
  {
    "market_id":"9410c855bb9c",
    "name":"평택국제중앙시장",
    "sido":"경기도",
    "sigungu":"평택시",
    "cycle_raw":"매일",
    "cycle_label":"매일",
    "cycle_days":[

    ],
    "type_show":"상설",
    "address":"경기도 평택시 중앙시장로 16",
    "lat":37.07987834,
    "lng":127.0521939
  },
  {
    "market_id":"622af473494f",
    "name":"서정리시장",
    "sido":"경기도",
    "sigungu":"평택시",
    "cycle_raw":"2일+7일",
    "cycle_label":"2·7",
    "cycle_days":[
      2,
      7
    ],
    "type_show":"2·7장",
    "address":"경기도 평택시 서정역로 37",
    "lat":37.05742213,
    "lng":127.0555064
  },
  {
    "market_id":"08ace4856eb0",
    "name":"봉일천시장",
    "sido":"경기도",
    "sigungu":"파주시",
    "cycle_raw":"2일+7일",
    "cycle_label":"2·7",
    "cycle_days":[
      2,
      7
    ],
    "type_show":"2·7장",
    "address":"경기도 파주시 조리읍 봉천로 33-1",
    "lat":37.74353235,
    "lng":126.8078457
  },
  {
    "market_id":"330005aab3fa",
    "name":"전주신중앙시장(신중앙시장)",
    "sido":"전북특별차치도",
    "sigungu":"전주시",
    "cycle_raw":"매일",
    "cycle_label":"매일",
    "cycle_days":[

    ],
    "type_show":"상설",
    "address":"전북특별차치도 전주시 완산구 태평5길 33",
    "lat":35.8241473,
    "lng":127.1434872
  },
  {
    "market_id":"52817d2e3f27",
    "name":"모래내시장(전주)",
    "sido":"전북특별차치도",
    "sigungu":"전주시",
    "cycle_raw":"매일",
    "cycle_label":"매일",
    "cycle_days":[

    ],
    "type_show":"상설",
    "address":"전북특별차치도 전주시 덕진구 모래내4길 8-8",
    "lat":35.833574,
    "lng":127.1438694
  },
  {
    "market_id":"8249b7461486",
    "name":"금촌명동로시장",
    "sido":"경기도",
    "sigungu":"파주시",
    "cycle_raw":"매일",
    "cycle_label":"매일",
    "cycle_days":[

    ],
    "type_show":"상설",
    "address":"경기도 파주시 명동길 53",
    "lat":37.76330134,
    "lng":126.773362
  },
  {
    "market_id":"5758440a6731",
    "name":"금촌문화로시장",
    "sido":"경기도",
    "sigungu":"파주시",
    "cycle_raw":"매일",
    "cycle_label":"매일",
    "cycle_days":[

    ],
    "type_show":"상설",
    "address":"경기도 파주시 문화로 89-1",
    "lat":37.76225007,
    "lng":126.7748519
  },
  {
    "market_id":"40f80081e7f1",
    "name":"석바위시장",
    "sido":"인천광역시",
    "sigungu":"미추홀구",
    "cycle_raw":"매일",
    "cycle_label":"매일",
    "cycle_days":[

    ],
    "type_show":"상설",
    "address":"인천광역시 미추홀구 경인로 485번길 17-1",
    "lat":37.46015327,
    "lng":126.6927408
  },
  {
    "market_id":"720b32448ec1",
    "name":"용현시장",
    "sido":"인천광역시",
    "sigungu":"미추홀구",
    "cycle_raw":"매일",
    "cycle_label":"매일",
    "cycle_days":[

    ],
    "type_show":"상설",
    "address":"인천광역시 미추홀구 용삼길 13",
    "lat":37.45756673,
    "lng":126.6503669
  },
  {
    "market_id":"190aa20e1991",
    "name":"장호원전통시장",
    "sido":"경기도",
    "sigungu":"이천시",
    "cycle_raw":"4일+9일",
    "cycle_label":"4·9",
    "cycle_days":[
      4,
      9
    ],
    "type_show":"4·9장",
    "address":"경기도 이천시 장호원읍 장감로77번길 14",
    "lat":37.11809055,
    "lng":127.631251
  },
  {
    "market_id":"65cfb45cbd47",
    "name":"사기막골도자기시장",
    "sido":"경기도",
    "sigungu":"이천시",
    "cycle_raw":"매일",
    "cycle_label":"매일",
    "cycle_days":[

    ],
    "type_show":"상설",
    "address":"경기도 이천시 경충대로2993번길 24",
    "lat":37.29483104,
    "lng":127.4119796
  },
  {
    "market_id":"f816a0b1cac0",
    "name":"관고전통시장",
    "sido":"경기도",
    "sigungu":"이천시",
    "cycle_raw":"2일+7일",
    "cycle_label":"2·7",
    "cycle_days":[
      2,
      7
    ],
    "type_show":"2·7장",
    "address":"경기도 이천시 중리천로 31번길 22",
    "lat":37.2808079,
    "lng":127.4403637
  },
  {
    "market_id":"81a6bc875b2a",
    "name":"의정부제일시장",
    "sido":"경기도",
    "sigungu":"의정부시",
    "cycle_raw":"매일",
    "cycle_label":"매일",
    "cycle_days":[

    ],
    "type_show":"상설",
    "address":"경기도 의정부시 태평로 73번길 20",
    "lat":37.74011951,
    "lng":127.0500672
  },
  {
    "market_id":"9ded49bddfae",
    "name":"의정부청과야채시장",
    "sido":"경기도",
    "sigungu":"의정부시",
    "cycle_raw":"매일",
    "cycle_label":"매일",
    "cycle_days":[

    ],
    "type_show":"상설",
    "address":"경기도 의정부시 시민로 157번길",
    "lat":37.7389705273,
    "lng":127.0522965688
  },
  {
    "market_id":"be3e9887b8e6",
    "name":"의정부시장",
    "sido":"경기도",
    "sigungu":"의정부시",
    "cycle_raw":"매일",
    "cycle_label":"매일",
    "cycle_days":[

    ],
    "type_show":"상설",
    "address":"경기도 의정부시 시민로143번길 40",
    "lat":37.73944331,
    "lng":127.0511786
  },
  {
    "market_id":"6ac444806c5b",
    "name":"의왕도깨비시장",
    "sido":"경기도",
    "sigungu":"의왕시",
    "cycle_raw":"매일",
    "cycle_label":"매일",
    "cycle_days":[

    ],
    "type_show":"상설",
    "address":"경기도 의왕시 부곡시장길 18",
    "lat":37.3194783,
    "lng":126.9507208
  },
  {
    "market_id":"9de7ef55a482",
    "name":"신정상가시장",
    "sido":"울산광역시",
    "sigungu":"남구",
    "cycle_raw":"매일",
    "cycle_label":"매일",
    "cycle_days":[

    ],
    "type_show":"상설",
    "address":"울산광역시 남구 중앙로241번길 14-1",
    "lat":35.54197244,
    "lng":129.3090699
  },
  {
    "market_id":"4971cde403cd",
    "name":"죽전로데오상점가시장",
    "sido":"경기도",
    "sigungu":"용인시",
    "cycle_raw":"매일",
    "cycle_label":"매일",
    "cycle_days":[

    ],
    "type_show":"상설",
    "address":"경기도 용인시 수지구 용구대로 2725-1",
    "lat":37.32876491,
    "lng":127.1080484
  },
  {
    "market_id":"4fc6d7815325",
    "name":"오색시장",
    "sido":"경기도",
    "sigungu":"오산시",
    "cycle_raw":"3일+8일",
    "cycle_label":"3·8",
    "cycle_days":[
      3,
      8
    ],
    "type_show":"3·8장",
    "address":"경기도 오산시 오산로 272번길 21",
    "lat":37.15133204,
    "lng":127.0709405
  },
  {
    "market_id":"ffe45ee26a11",
    "name":"전곡전통시장",
    "sido":"경기도",
    "sigungu":"연천군",
    "cycle_raw":"매일",
    "cycle_label":"매일",
    "cycle_days":[

    ],
    "type_show":"상설",
    "address":"경기도 연천군 전곡읍 전곡로172번길 4-15",
    "lat":38.02715221,
    "lng":127.0681662
  },
  {
    "market_id":"bf2d1cdf2067",
    "name":"여주한글시장(여주중앙로상점가)",
    "sido":"경기도",
    "sigungu":"여주시",
    "cycle_raw":"5일+10일",
    "cycle_label":"5·10",
    "cycle_days":[
      5,
      10
    ],
    "type_show":"5·10장",
    "address":"경기도 여주시 세종로14번길 24-1",
    "lat":37.29755162,
    "lng":127.6342927
  },
  {
    "market_id":"f61b9b2c40b5",
    "name":"용문천년시장",
    "sido":"경기도",
    "sigungu":"양평군",
    "cycle_raw":"5일+10일",
    "cycle_label":"5·10",
    "cycle_days":[
      5,
      10
    ],
    "type_show":"5·10장",
    "address":"경기도 양평군 용문면 용문시장2길 11",
    "lat":37.48396864,
    "lng":127.5947554
  },
  {
    "market_id":"5e56c5f68b1c",
    "name":"상계중앙시장",
    "sido":"서울특별시",
    "sigungu":"노원구",
    "cycle_raw":"매일",
    "cycle_label":"매일",
    "cycle_days":[

    ],
    "type_show":"상설",
    "address":"서울특별시 노원구 상계로 27길 32",
    "lat":37.65994072,
    "lng":127.0698633
  },
  {
    "market_id":"f6726cf0c978",
    "name":"양수리전통시장(양평양수리시장)",
    "sido":"경기도",
    "sigungu":"양평군",
    "cycle_raw":"1일+6일",
    "cycle_label":"1·6",
    "cycle_days":[
      1,
      6
    ],
    "type_show":"1·6장",
    "address":"경기도 양평군 양서면 양수로150번길 3-15",
    "lat":37.54506648,
    "lng":127.3197944
  },
  {
    "market_id":"cf64c981b710",
    "name":"기장시장",
    "sido":"부산광역시",
    "sigungu":"기장군",
    "cycle_raw":"매일",
    "cycle_label":"매일",
    "cycle_days":[

    ],
    "type_show":"상설",
    "address":"부산광역시 기장군 기장읍 읍내로104번길 16",
    "lat":35.24369155,
    "lng":129.2148692
  },
  {
    "market_id":"5db7068d7aa5",
    "name":"중부농수산물시장",
    "sido":"경기도",
    "sigungu":"안양시",
    "cycle_raw":"매일",
    "cycle_label":"매일",
    "cycle_days":[

    ],
    "type_show":"상설",
    "address":"경기도 안양시 만안구 안양로248번길23",
    "lat":37.39590837,
    "lng":126.9256223
  },
  {
    "market_id":"ac85fc7dea84",
    "name":"안양중앙인정시장",
    "sido":"경기도",
    "sigungu":"안양시",
    "cycle_raw":"매일",
    "cycle_label":"매일",
    "cycle_days":[

    ],
    "type_show":"상설",
    "address":"경기도 안양시 만안구 냉천로185번길 8",
    "lat":37.39648106,
    "lng":126.9195685
  },
  {
    "market_id":"1380c0e69379",
    "name":"육동시장",
    "sido":"경기도",
    "sigungu":"안양시",
    "cycle_raw":"매일",
    "cycle_label":"매일",
    "cycle_days":[

    ],
    "type_show":"상설",
    "address":"경기도 안양시 만안구 수리산로 47번길 38",
    "lat":37.39058613,
    "lng":126.9302236
  },
  {
    "market_id":"a5d1f8e8857a",
    "name":"석수시장",
    "sido":"경기도",
    "sigungu":"안양시",
    "cycle_raw":"매일",
    "cycle_label":"매일",
    "cycle_days":[

    ],
    "type_show":"상설",
    "address":"경기도 안양시 만안구 석천로 171번길 20",
    "lat":37.4128602,
    "lng":126.9079728
  },
  {
    "market_id":"43764ca3bd7f",
    "name":"왜관시장",
    "sido":"경상북도",
    "sigungu":"칠곡군",
    "cycle_raw":"1일+6일",
    "cycle_label":"1·6",
    "cycle_days":[
      1,
      6
    ],
    "type_show":"1·6장",
    "address":"경상북도 칠곡군 왜관읍 시장2길 9",
    "lat":35.9951519,
    "lng":128.39825
  },
  {
    "market_id":"2017297b24b0",
    "name":"중앙시장",
    "sido":"경기도",
    "sigungu":"안양시",
    "cycle_raw":"매일",
    "cycle_label":"매일",
    "cycle_days":[

    ],
    "type_show":"상설",
    "address":"경기도 안양시 만안구 냉천로 196",
    "lat":37.39757136,
    "lng":126.919669
  },
  {
    "market_id":"66465fdd755a",
    "name":"안양남부시장",
    "sido":"경기도",
    "sigungu":"안양시",
    "cycle_raw":"매일",
    "cycle_label":"매일",
    "cycle_days":[

    ],
    "type_show":"상설",
    "address":"경기도 안양시 만안구 장내로 140번길 51",
    "lat":37.39593498,
    "lng":126.924956
  },
  {
    "market_id":"9a8b12c405d5",
    "name":"안양호계종합시장",
    "sido":"경기도",
    "sigungu":"안양시",
    "cycle_raw":"매일",
    "cycle_label":"매일",
    "cycle_days":[

    ],
    "type_show":"상설",
    "address":"경기도 안양시 동안구 흥안대로133번길 59-2",
    "lat":37.37338078,
    "lng":126.9582499
  },
  {
    "market_id":"f178cd376d2b",
    "name":"안양관양시장",
    "sido":"경기도",
    "sigungu":"안양시",
    "cycle_raw":"매일",
    "cycle_label":"매일",
    "cycle_days":[

    ],
    "type_show":"상설",
    "address":"경기도 안양시 동안구 관평로 336번길 31",
    "lat":37.4052233,
    "lng":126.9593052
  },
  {
    "market_id":"e19dfafcfeb1",
    "name":"죽산시장",
    "sido":"경기도",
    "sigungu":"안성시",
    "cycle_raw":"5일+10일",
    "cycle_label":"5·10",
    "cycle_days":[
      5,
      10
    ],
    "type_show":"5·10장",
    "address":"경기도 안성시 죽산면 중서길 8-9",
    "lat":37.07598943,
    "lng":127.4233876
  },
  {
    "market_id":"f57ed1ed578b",
    "name":"일죽시장",
    "sido":"경기도",
    "sigungu":"안성시",
    "cycle_raw":"매일",
    "cycle_label":"매일",
    "cycle_days":[

    ],
    "type_show":"상설",
    "address":"경기도 안성시 일죽면 금일로 467",
    "lat":37.09336892,
    "lng":127.4784203
  },
  {
    "market_id":"ec4817a4fc50",
    "name":"중앙시장",
    "sido":"경기도",
    "sigungu":"안성시",
    "cycle_raw":"2일+7일",
    "cycle_label":"2·7",
    "cycle_days":[
      2,
      7
    ],
    "type_show":"2·7장",
    "address":"경기도 안성시 장기로45번길 30",
    "lat":37.00656227,
    "lng":127.2687966
  },
  {
    "market_id":"c8c8b8083bc5",
    "name":"안성맞춤시장",
    "sido":"경기도",
    "sigungu":"안성시",
    "cycle_raw":"매일",
    "cycle_label":"매일",
    "cycle_days":[

    ],
    "type_show":"상설",
    "address":"경기도 안성시 시장길 37",
    "lat":37.00663081,
    "lng":127.2703585
  },
  {
    "market_id":"254e87ef68d5",
    "name":"안산 다농마트 전통시장",
    "sido":"경기도",
    "sigungu":"안산시",
    "cycle_raw":"매일",
    "cycle_label":"매일",
    "cycle_days":[

    ],
    "type_show":"상설",
    "address":"경기도 안산시 상록구 예술광장로 1",
    "lat":37.32836033,
    "lng":126.8442469
  },
  {
    "market_id":"7c2090379387",
    "name":"안산패션타운전통시장",
    "sido":"경기도",
    "sigungu":"안산시",
    "cycle_raw":"매일",
    "cycle_label":"매일",
    "cycle_days":[

    ],
    "type_show":"상설",
    "address":"경기도 안산시 상록구 삼리로 45",
    "lat":37.30497907,
    "lng":126.8446674
  },
  {
    "market_id":"187214ffde82",
    "name":"월드프라자",
    "sido":"경기도",
    "sigungu":"안산시",
    "cycle_raw":"매일",
    "cycle_label":"매일",
    "cycle_days":[

    ],
    "type_show":"상설",
    "address":"경기도 안산시 상록구 본삼로 60",
    "lat":37.30056356,
    "lng":126.8664563
  },
  {
    "market_id":"5b5b90db59a3",
    "name":"신안프라자전통시장",
    "sido":"경기도",
    "sigungu":"안산시",
    "cycle_raw":"매일",
    "cycle_label":"매일",
    "cycle_days":[

    ],
    "type_show":"상설",
    "address":"경기도 안산시 상록구 반석로 54",
    "lat":37.29647214,
    "lng":126.8658207
  },
  {
    "market_id":"3c41e0beaa88",
    "name":"황금시장",
    "sido":"경상북도",
    "sigungu":"김천시",
    "cycle_raw":"5일+10일",
    "cycle_label":"5·10",
    "cycle_days":[
      5,
      10
    ],
    "type_show":"5·10장",
    "address":"경상북도 김천시 황금시장4길20",
    "lat":36.11666261,
    "lng":128.1252827
  },
  {
    "market_id":"dd31df957c0e",
    "name":"스타프라자전통시장",
    "sido":"경기도",
    "sigungu":"안산시",
    "cycle_raw":"매일",
    "cycle_label":"매일",
    "cycle_days":[

    ],
    "type_show":"상설",
    "address":"경기도 안산시 상록구 화랑로 513",
    "lat":37.32081031,
    "lng":126.8447251
  },
  {
    "market_id":"6659f68f311d",
    "name":"제주시서문공설시장",
    "sido":"제주특별자치도",
    "sigungu":"제주시",
    "cycle_raw":"매일",
    "cycle_label":"매일",
    "cycle_days":[

    ],
    "type_show":"상설",
    "address":"제주특별자치도 제주시 서문로4길 13-2",
    "lat":33.51134646,
    "lng":126.5179035
  },
  {
    "market_id":"8d571d3c43d7",
    "name":"연풍전통시장",
    "sido":"충청북도",
    "sigungu":"괴산군",
    "cycle_raw":"2일+7일",
    "cycle_label":"2·7",
    "cycle_days":[
      2,
      7
    ],
    "type_show":"2·7장",
    "address":"충청북도 괴산군 연풍면 향교로홍문길 5",
    "lat":36.76472468,
    "lng":127.9951005
  },
  {
    "market_id":"e9e75b142ff3",
    "name":"목도재래시장",
    "sido":"충청북도",
    "sigungu":"괴산군",
    "cycle_raw":"4일+9일",
    "cycle_label":"4·9",
    "cycle_days":[
      4,
      9
    ],
    "type_show":"4·9장",
    "address":"충청북도 괴산군 불정면 목도로4길 11",
    "lat":36.87204755,
    "lng":127.8530473
  },
  {
    "market_id":"73429f5b83ec",
    "name":"전주남부시장",
    "sido":"전북특별차치도",
    "sigungu":"전주시",
    "cycle_raw":"매일",
    "cycle_label":"매일",
    "cycle_days":[

    ],
    "type_show":"상설",
    "address":"전북특별차치도 전주시 완산구 풍남문1길 19-3",
    "lat":35.81278651,
    "lng":127.1475386
  },
  {
    "market_id":"82b523bb6103",
    "name":"홍성전통시장",
    "sido":"충청남도",
    "sigungu":"홍성군",
    "cycle_raw":"1일+6일",
    "cycle_label":"1·6",
    "cycle_days":[
      1,
      6
    ],
    "type_show":"1·6장",
    "address":"충청남도 홍성군 홍성읍 홍성천길 242",
    "lat":36.60214738,
    "lng":126.6680243
  },
  {
    "market_id":"856afd653f28",
    "name":"홍성상설시장",
    "sido":"충청남도",
    "sigungu":"홍성군",
    "cycle_raw":"매일",
    "cycle_label":"매일",
    "cycle_days":[

    ],
    "type_show":"상설",
    "address":"충청남도 홍성군 홍성읍 아문길 60",
    "lat":36.59973826,
    "lng":126.6637095
  },
  {
    "market_id":"5de53a734b86",
    "name":"광천문화시장",
    "sido":"충청남도",
    "sigungu":"홍성군",
    "cycle_raw":"4일+9일",
    "cycle_label":"4·9",
    "cycle_days":[
      4,
      9
    ],
    "type_show":"4·9장",
    "address":"충청남도 홍성군 광천읍 광천로323번길 15-1",
    "lat":36.50232616,
    "lng":126.6250081
  },
  {
    "market_id":"8f3802fbb3a8",
    "name":"광천전통시장",
    "sido":"충청남도",
    "sigungu":"홍성군",
    "cycle_raw":"4일+9일",
    "cycle_label":"4·9",
    "cycle_days":[
      4,
      9
    ],
    "type_show":"4·9장",
    "address":"충청남도 홍성군 광천읍 광천로 285",
    "lat":36.4998307,
    "lng":126.6252434
  },
  {
    "market_id":"f3b42d46d8ce",
    "name":"갈산전통시장",
    "sido":"충청남도",
    "sigungu":"홍성군",
    "cycle_raw":"3일+8일",
    "cycle_label":"3·8",
    "cycle_days":[
      3,
      8
    ],
    "type_show":"3·8장",
    "address":"충청남도 홍성군 갈산면 상촌로 29",
    "lat":36.6036997,
    "lng":126.5505509
  },
  {
    "market_id":"d44d68f73183",
    "name":"태안서부시장",
    "sido":"충청남도",
    "sigungu":"태안군",
    "cycle_raw":"매일",
    "cycle_label":"매일",
    "cycle_days":[

    ],
    "type_show":"상설",
    "address":"충청남도 태안군 태안읍 시장2길 32-7 (남문3리마을회관)",
    "lat":36.75299449,
    "lng":126.2968375
  },
  {
    "market_id":"835496049da8",
    "name":"안면도수산시장(안면도장터)",
    "sido":"충청남도",
    "sigungu":"태안군",
    "cycle_raw":"매일",
    "cycle_label":"매일",
    "cycle_days":[

    ],
    "type_show":"상설",
    "address":"충청남도 태안군 안면읍 장터로 104",
    "lat":36.51635222,
    "lng":126.3460071
  },
  {
    "market_id":"b9d98447c13b",
    "name":"태안동부시장(태안특산물전통시장)",
    "sido":"충청남도",
    "sigungu":"서산시",
    "cycle_raw":"3일+8일",
    "cycle_label":"3·8",
    "cycle_days":[
      3,
      8
    ],
    "type_show":"3·8장",
    "address":"충청남도 서산시 시장4길 32",
    "lat":36.78114144,
    "lng":126.4582001
  },
  {
    "market_id":"e888af58cd15",
    "name":"정산시장",
    "sido":"충청남도",
    "sigungu":"청양군",
    "cycle_raw":"5일+10일",
    "cycle_label":"5·10",
    "cycle_days":[
      5,
      10
    ],
    "type_show":"5·10장",
    "address":"충청남도 청양군 정산면 정현길 54",
    "lat":36.41059786,
    "lng":126.9480121
  },
  {
    "market_id":"88c29c050fb8",
    "name":"청양전통시장",
    "sido":"충청남도",
    "sigungu":"청양군",
    "cycle_raw":"2일+7일",
    "cycle_label":"2·7",
    "cycle_days":[
      2,
      7
    ],
    "type_show":"2·7장",
    "address":"충청남도 청양군 청양읍 칠갑산로6길 6",
    "lat":36.45048364,
    "lng":126.8018476
  },
  {
    "market_id":"c934da225142",
    "name":"북부시장",
    "sido":"전북특별차치도",
    "sigungu":"익산시",
    "cycle_raw":"4일+9일",
    "cycle_label":"4·9",
    "cycle_days":[
      4,
      9
    ],
    "type_show":"4·9장",
    "address":"전북특별차치도 익산시 인북로 219",
    "lat":35.94821919,
    "lng":126.9565852
  },
  {
    "market_id":"ad1be5b9cecc",
    "name":"봉동시장",
    "sido":"전북특별차치도",
    "sigungu":"완주군",
    "cycle_raw":"5일+10일",
    "cycle_label":"5·10",
    "cycle_days":[
      5,
      10
    ],
    "type_show":"5·10장",
    "address":"전북특별차치도 완주군 봉동읍 봉동동서로 134-5",
    "lat":35.93871982,
    "lng":127.1670778
  },
  {
    "market_id":"b464f28fa365",
    "name":"병천시장",
    "sido":"충청남도",
    "sigungu":"천안시",
    "cycle_raw":"1일+6일",
    "cycle_label":"1·6",
    "cycle_days":[
      1,
      6
    ],
    "type_show":"1·6장",
    "address":"충청남도 천안시 동남구 병천면 아우내장터1길 46",
    "lat":36.76242111,
    "lng":127.2981701
  },
  {
    "market_id":"520b7eb84361",
    "name":"천안중앙시장(구 남산중앙시장)",
    "sido":"충청남도",
    "sigungu":"천안시",
    "cycle_raw":"매일",
    "cycle_label":"매일",
    "cycle_days":[

    ],
    "type_show":"상설",
    "address":"충청남도 천안시 동남구 사직2길 19 (남산중앙시장상인회)",
    "lat":36.80032317,
    "lng":127.1484498
  },
  {
    "market_id":"d5a4c24e9aac",
    "name":"천안역전시장",
    "sido":"충청남도",
    "sigungu":"천안시",
    "cycle_raw":"매일",
    "cycle_label":"매일",
    "cycle_days":[

    ],
    "type_show":"상설",
    "address":"충청남도 천안시 동남구 공설시장2길 15",
    "lat":36.81006288,
    "lng":127.1498779
  },
  {
    "market_id":"012cf5078908",
    "name":"삽교시장",
    "sido":"충청남도",
    "sigungu":"예산군",
    "cycle_raw":"2일+5일",
    "cycle_label":"2·5",
    "cycle_days":[
      2,
      5
    ],
    "type_show":"2·5장",
    "address":"충청남도 예산군 삽교읍 두리3길 50-6",
    "lat":36.68742244,
    "lng":126.7410344
  },
  {
    "market_id":"5def167895f7",
    "name":"예산시장",
    "sido":"충청남도",
    "sigungu":"예산군",
    "cycle_raw":"5일+10일",
    "cycle_label":"5·10",
    "cycle_days":[
      5,
      10
    ],
    "type_show":"5·10장",
    "address":"충청남도 예산군 예산읍 형제고개로 967",
    "lat":36.67723471,
    "lng":126.8494508
  },
  {
    "market_id":"473bf8305ac8",
    "name":"예산상설시장",
    "sido":"충청남도",
    "sigungu":"예산군",
    "cycle_raw":"5일+10일",
    "cycle_label":"5·10",
    "cycle_days":[
      5,
      10
    ],
    "type_show":"5·10장",
    "address":"충청남도 예산군 예산읍 예산시장길 2",
    "lat":36.67723471,
    "lng":126.8494508
  },
  {
    "market_id":"c7764f236f45",
    "name":"역전시장",
    "sido":"충청남도",
    "sigungu":"예산군",
    "cycle_raw":"3일+8일",
    "cycle_label":"3·8",
    "cycle_days":[
      3,
      8
    ],
    "type_show":"3·8장",
    "address":"충청남도 예산군 예산읍 역전로 84",
    "lat":36.68704166,
    "lng":126.829854
  },
  {
    "market_id":"72c68a44822a",
    "name":"덕산시장",
    "sido":"충청남도",
    "sigungu":"예산군",
    "cycle_raw":"4일+9일",
    "cycle_label":"4·9",
    "cycle_days":[
      4,
      9
    ],
    "type_show":"4·9장",
    "address":"충청남도 예산군 덕산면 읍내서길 2-1",
    "lat":36.70498477,
    "lng":126.6681533
  },
  {
    "market_id":"bd798f0453eb",
    "name":"광시시장",
    "sido":"충청남도",
    "sigungu":"예산군",
    "cycle_raw":"3일+8일",
    "cycle_label":"3·8",
    "cycle_days":[
      3,
      8
    ],
    "type_show":"3·8장",
    "address":"충청남도 예산군 광시면 예당로 165-22",
    "lat":36.54911162,
    "lng":126.7744446
  },
  {
    "market_id":"2522396c955a",
    "name":"안산시시민시장",
    "sido":"경기도",
    "sigungu":"안산시",
    "cycle_raw":"5일+10일",
    "cycle_label":"5·10",
    "cycle_days":[
      5,
      10
    ],
    "type_show":"5·10장",
    "address":"경기도 안산시 단원구 화랑로 149",
    "lat":37.32536495,
    "lng":126.8050908
  },
  {
    "market_id":"b66cf19427e9",
    "name":"안강공설시장",
    "sido":"경상북도",
    "sigungu":"경주시",
    "cycle_raw":"4일+9일",
    "cycle_label":"4·9",
    "cycle_days":[
      4,
      9
    ],
    "type_show":"4·9장",
    "address":"경상북도 경주시 안강읍 비화중로 3길 26-3",
    "lat":35.99030205,
    "lng":129.2217127
  },
  {
    "market_id":"1e475f4d7c08",
    "name":"궁평항해오름수산시장",
    "sido":"경기도",
    "sigungu":"화성시",
    "cycle_raw":"매일",
    "cycle_label":"매일",
    "cycle_days":[

    ],
    "type_show":"상설",
    "address":"경기도 화성시 서신면 궁평항로 1049-24",
    "lat":37.11602674,
    "lng":126.6812763
  },
  {
    "market_id":"f06be3511741",
    "name":"오이도전통수산시장",
    "sido":"경기도",
    "sigungu":"시흥시",
    "cycle_raw":"매일",
    "cycle_label":"매일",
    "cycle_days":[

    ],
    "type_show":"상설",
    "address":"경기도 시흥시 오이도로 167 173",
    "lat":37.34588337,
    "lng":126.6882074
  },
  {
    "market_id":"74eeac11b860",
    "name":"정왕시장",
    "sido":"경기도",
    "sigungu":"시흥시",
    "cycle_raw":"매일",
    "cycle_label":"매일",
    "cycle_days":[

    ],
    "type_show":"상설",
    "address":"경기도 시흥시 정왕시장길 51",
    "lat":37.34580179,
    "lng":126.748564
  },
  {
    "market_id":"617b7a72a98c",
    "name":"시흥삼미시장",
    "sido":"경기도",
    "sigungu":"시흥시",
    "cycle_raw":"매일",
    "cycle_label":"매일",
    "cycle_days":[

    ],
    "type_show":"상설",
    "address":"경기도 시흥시 삼미시장2길 35",
    "lat":37.44040657,
    "lng":126.7838201
  },
  {
    "market_id":"41f8b3b45bdc",
    "name":"도일시장",
    "sido":"경기도",
    "sigungu":"안산시",
    "cycle_raw":"3일+8일",
    "cycle_label":"3·8",
    "cycle_days":[
      3,
      8
    ],
    "type_show":"3·8장",
    "address":"경기도 안산시 단원구 도일로 100",
    "lat":37.33934833,
    "lng":126.7839859
  },
  {
    "market_id":"c2d72f99dd09",
    "name":"팔달문시장",
    "sido":"경기도",
    "sigungu":"수원시",
    "cycle_raw":"매일",
    "cycle_label":"매일",
    "cycle_days":[

    ],
    "type_show":"상설",
    "address":"경기도 수원시 팔달구 정조로770번길 17",
    "lat":37.27685014,
    "lng":127.0178829
  },
  {
    "market_id":"8f5785cdb122",
    "name":"역전시장",
    "sido":"경기도",
    "sigungu":"수원시",
    "cycle_raw":"매일",
    "cycle_label":"매일",
    "cycle_days":[

    ],
    "type_show":"상설",
    "address":"경기도 수원시 팔달구 매산로 2-10",
    "lat":37.26630163,
    "lng":127.0023389
  },
  {
    "market_id":"7843ad9c6ec3",
    "name":"남문패션1번가시장",
    "sido":"경기도",
    "sigungu":"수원시",
    "cycle_raw":"매일",
    "cycle_label":"매일",
    "cycle_days":[

    ],
    "type_show":"상설",
    "address":"경기도 수원시 팔달구 정조로758번길 24",
    "lat":37.27562469,
    "lng":127.0181081
  },
  {
    "market_id":"3f769af07519",
    "name":"못골종합시장",
    "sido":"경기도",
    "sigungu":"수원시",
    "cycle_raw":"매일",
    "cycle_label":"매일",
    "cycle_days":[

    ],
    "type_show":"상설",
    "address":"경기도 수원시 팔달구 수원천로 254",
    "lat":37.27618303,
    "lng":127.0200138
  },
  {
    "market_id":"9684c2d45403",
    "name":"남문로데오시장",
    "sido":"경기도",
    "sigungu":"수원시",
    "cycle_raw":"매일",
    "cycle_label":"매일",
    "cycle_days":[

    ],
    "type_show":"상설",
    "address":"경기도 수원시 팔달구 행궁로 88",
    "lat":37.27463391,
    "lng":127.0155146
  },
  {
    "market_id":"26d6c466a801",
    "name":"구천동공구상가시장",
    "sido":"경기도",
    "sigungu":"수원시",
    "cycle_raw":"매일",
    "cycle_label":"매일",
    "cycle_days":[

    ],
    "type_show":"상설",
    "address":"경기도 수원시 팔달구 수원천로199번길 5",
    "lat":37.27211975,
    "lng":127.0173519
  },
  {
    "market_id":"627f6043ae46",
    "name":"매산시장",
    "sido":"경기도",
    "sigungu":"수원시",
    "cycle_raw":"매일",
    "cycle_label":"매일",
    "cycle_days":[

    ],
    "type_show":"상설",
    "address":"경기도 수원시 팔달구 권선로 477",
    "lat":37.26457025,
    "lng":127.0033483
  },
  {
    "market_id":"d47456edf853",
    "name":"미나리광시장",
    "sido":"경기도",
    "sigungu":"수원시",
    "cycle_raw":"매일",
    "cycle_label":"매일",
    "cycle_days":[

    ],
    "type_show":"상설",
    "address":"경기도 수원시 팔달구 수원천로 266-4",
    "lat":37.27727335,
    "lng":127.0196307
  },
  {
    "market_id":"af444ea93247",
    "name":"화서시장",
    "sido":"경기도",
    "sigungu":"수원시",
    "cycle_raw":"매일",
    "cycle_label":"매일",
    "cycle_days":[

    ],
    "type_show":"상설",
    "address":"경기도 수원시 팔달구 동말로 72",
    "lat":37.27858147,
    "lng":127.0020973
  },
  {
    "market_id":"cfc5ffcace18",
    "name":"지동시장",
    "sido":"경기도",
    "sigungu":"수원시",
    "cycle_raw":"매일",
    "cycle_label":"매일",
    "cycle_days":[

    ],
    "type_show":"상설",
    "address":"경기도 수원시 팔달구 팔달문로 19",
    "lat":37.27788606,
    "lng":127.0196309
  },
  {
    "market_id":"211c697ed8b6",
    "name":"영동시장",
    "sido":"경기도",
    "sigungu":"수원시",
    "cycle_raw":"매일",
    "cycle_label":"매일",
    "cycle_days":[

    ],
    "type_show":"상설",
    "address":"경기도 수원시 팔달구 수원천로255번길 6",
    "lat":37.27681569,
    "lng":127.0186497
  },
  {
    "market_id":"db82f118cdfb",
    "name":"시민상가시장",
    "sido":"경기도",
    "sigungu":"수원시",
    "cycle_raw":"매일",
    "cycle_label":"매일",
    "cycle_days":[

    ],
    "type_show":"상설",
    "address":"경기도 수원시 팔달구 팔달문로4번길 19",
    "lat":37.27667892,
    "lng":127.0179844
  },
  {
    "market_id":"6a608c663a8c",
    "name":"북수원시장",
    "sido":"경기도",
    "sigungu":"수원시",
    "cycle_raw":"매일",
    "cycle_label":"매일",
    "cycle_days":[

    ],
    "type_show":"상설",
    "address":"경기도 수원시 장안구 파장로82번길 9",
    "lat":37.30704501,
    "lng":126.992183
  },
  {
    "market_id":"aabbafc92de8",
    "name":"조원시장",
    "sido":"경기도",
    "sigungu":"수원시",
    "cycle_raw":"매일",
    "cycle_label":"매일",
    "cycle_days":[

    ],
    "type_show":"상설",
    "address":"경기도 수원시 장안구 조원로89번길 8",
    "lat":37.30078207,
    "lng":127.0153395
  },
  {
    "market_id":"6edc96883c07",
    "name":"반딧불이연무시장",
    "sido":"경기도",
    "sigungu":"수원시",
    "cycle_raw":"매일",
    "cycle_label":"매일",
    "cycle_days":[

    ],
    "type_show":"상설",
    "address":"경기도 수원시 장안구 월드컵로428번길 10",
    "lat":37.29395937,
    "lng":127.0259733
  },
  {
    "market_id":"1cda3ccb42d8",
    "name":"장안문거북시장",
    "sido":"경기도",
    "sigungu":"수원시",
    "cycle_raw":"매일",
    "cycle_label":"매일",
    "cycle_days":[

    ],
    "type_show":"상설",
    "address":"경기도 수원시 장안구 수성로382번길 24",
    "lat":37.29315046,
    "lng":127.0139733
  },
  {
    "market_id":"13f71507325b",
    "name":"정자시장",
    "sido":"경기도",
    "sigungu":"수원시",
    "cycle_raw":"매일",
    "cycle_label":"매일",
    "cycle_days":[

    ],
    "type_show":"상설",
    "address":"경기도 수원시 장안구 수성로261번길 16",
    "lat":37.29069027,
    "lng":127.0008813
  },
  {
    "market_id":"3dbc620885f3",
    "name":"구매탄시장",
    "sido":"경기도",
    "sigungu":"수원시",
    "cycle_raw":"매일",
    "cycle_label":"매일",
    "cycle_days":[

    ],
    "type_show":"상설",
    "address":"경기도 수원시 영통구 매여울로53번길 50-1",
    "lat":37.27260017,
    "lng":127.0419199
  },
  {
    "market_id":"98b024d173c5",
    "name":"권선종합시장",
    "sido":"경기도",
    "sigungu":"수원시",
    "cycle_raw":"매일",
    "cycle_label":"매일",
    "cycle_days":[

    ],
    "type_show":"상설",
    "address":"경기도 수원시 권선구 세권로 185",
    "lat":37.25609894,
    "lng":127.0245738
  },
  {
    "market_id":"43529942aca9",
    "name":"모란가축시장",
    "sido":"경기도",
    "sigungu":"성남시",
    "cycle_raw":"매일",
    "cycle_label":"매일",
    "cycle_days":[

    ],
    "type_show":"상설",
    "address":"경기도 성남시 중원구 성남대로 1127",
    "lat":37.4303345,
    "lng":127.1288817
  },
  {
    "market_id":"41c61f16d30a",
    "name":"은행시장",
    "sido":"경기도",
    "sigungu":"성남시",
    "cycle_raw":"매일",
    "cycle_label":"매일",
    "cycle_days":[

    ],
    "type_show":"상설",
    "address":"경기도 성남시 중원구 산성대로 526",
    "lat":37.45758204,
    "lng":127.164475
  },
  {
    "market_id":"6758b216a415",
    "name":"모란종합시장",
    "sido":"경기도",
    "sigungu":"성남시",
    "cycle_raw":"4일+9일",
    "cycle_label":"4·9",
    "cycle_days":[
      4,
      9
    ],
    "type_show":"4·9장",
    "address":"경기도 성남시 중원구 성남대로 1127",
    "lat":37.4303345,
    "lng":127.1288817
  },
  {
    "market_id":"319a6c07b50e",
    "name":"용인중앙시장",
    "sido":"경기도",
    "sigungu":"용인시",
    "cycle_raw":"5일+10일",
    "cycle_label":"5·10",
    "cycle_days":[
      5,
      10
    ],
    "type_show":"5·10장",
    "address":"경기도 용인시 처인구 금령로107번길 13",
    "lat":37.23671682,
    "lng":127.2078548
  },
  {
    "market_id":"3b4357c09f6c",
    "name":"금광시장",
    "sido":"경기도",
    "sigungu":"성남시",
    "cycle_raw":"매일",
    "cycle_label":"매일",
    "cycle_days":[

    ],
    "type_show":"상설",
    "address":"경기도 성남시 중원구 산성대로426번길 5",
    "lat":37.45003783,
    "lng":127.159904
  },
  {
    "market_id":"89bd2333596b",
    "name":"모란전통기름시장",
    "sido":"경기도",
    "sigungu":"성남시",
    "cycle_raw":"매일",
    "cycle_label":"매일",
    "cycle_days":[

    ],
    "type_show":"상설",
    "address":"경기도 성남시 중원구 둔촌대로 83번길 7",
    "lat":37.4309121,
    "lng":127.1280127
  },
  {
    "market_id":"9e15bd76b9a9",
    "name":"시화공구상가",
    "sido":"경기도",
    "sigungu":"시흥시",
    "cycle_raw":"매일",
    "cycle_label":"매일",
    "cycle_days":[

    ],
    "type_show":"상설",
    "address":"경기도 시흥시 공단1대로 204",
    "lat":37.33771151,
    "lng":126.7247015
  },
  {
    "market_id":"d96326af8c14",
    "name":"상대원시장",
    "sido":"경기도",
    "sigungu":"성남시",
    "cycle_raw":"매일",
    "cycle_label":"매일",
    "cycle_days":[

    ],
    "type_show":"상설",
    "address":"경기도 성남시 중원구 희망로344번길 6",
    "lat":37.43597453,
    "lng":127.158778
  },
  {
    "market_id":"dfb79f9c7bff",
    "name":"하대원공설시장",
    "sido":"경기도",
    "sigungu":"성남시",
    "cycle_raw":"매일",
    "cycle_label":"매일",
    "cycle_days":[

    ],
    "type_show":"상설",
    "address":"경기도 성남시 중원구 마지로 118",
    "lat":37.42740887,
    "lng":127.1422648
  },
  {
    "market_id":"1dd29eb02f56",
    "name":"현대시장",
    "sido":"경기도",
    "sigungu":"성남시",
    "cycle_raw":"매일",
    "cycle_label":"매일",
    "cycle_days":[

    ],
    "type_show":"상설",
    "address":"경기도 성남시 수정구 수정북로18",
    "lat":37.4417019,
    "lng":127.1319748
  },
  {
    "market_id":"75d890635133",
    "name":"중앙공설시장",
    "sido":"경기도",
    "sigungu":"성남시",
    "cycle_raw":"매일",
    "cycle_label":"매일",
    "cycle_days":[

    ],
    "type_show":"상설",
    "address":"경기도 성남시 수정구 수정로 109",
    "lat":37.44139541,
    "lng":127.1321099
  },
  {
    "market_id":"d7f37b5bdb0c",
    "name":"코코프라자시장",
    "sido":"경기도",
    "sigungu":"성남시",
    "cycle_raw":"매일",
    "cycle_label":"매일",
    "cycle_days":[

    ],
    "type_show":"상설",
    "address":"경기도 성남시 분당구 서현로210번길 20",
    "lat":37.38586536,
    "lng":127.1240404
  },
  {
    "market_id":"299b1130b2b6",
    "name":"현대시장(분당)",
    "sido":"경기도",
    "sigungu":"성남시",
    "cycle_raw":"매일",
    "cycle_label":"매일",
    "cycle_days":[

    ],
    "type_show":"상설",
    "address":"경기도 성남시 분당구 중앙공원로40번길 8",
    "lat":37.37970477,
    "lng":127.1301725
  },
  {
    "market_id":"87198145ad2c",
    "name":"정선아리랑시장",
    "sido":"강원특별자치도",
    "sigungu":"정선군",
    "cycle_raw":"2일+7일",
    "cycle_label":"2·7",
    "cycle_days":[
      2,
      7
    ],
    "type_show":"2·7장",
    "address":"강원특별자치도 정선군 정선읍 봉양7길 39",
    "lat":37.3803854,
    "lng":128.6652325
  },
  {
    "market_id":"4a930ba247d4",
    "name":"금호행복시장(금호시장)",
    "sido":"경기도",
    "sigungu":"성남시",
    "cycle_raw":"매일",
    "cycle_label":"매일",
    "cycle_days":[

    ],
    "type_show":"상설",
    "address":"경기도 성남시 분당구 내정로 165번길 38",
    "lat":37.37665581,
    "lng":127.1162348
  },
  {
    "market_id":"d5e1cc5dd48c",
    "name":"미금현대벤처빌시장",
    "sido":"경기도",
    "sigungu":"성남시",
    "cycle_raw":"매일",
    "cycle_label":"매일",
    "cycle_days":[

    ],
    "type_show":"상설",
    "address":"경기도 성남시 분당구 돌마로90번길 8",
    "lat":37.34928693,
    "lng":127.1117684
  },
  {
    "market_id":"089cd50bfe33",
    "name":"범한프라자시장",
    "sido":"경기도",
    "sigungu":"성남시",
    "cycle_raw":"매일",
    "cycle_label":"매일",
    "cycle_days":[

    ],
    "type_show":"상설",
    "address":"경기도 성남시 분당구 불정로376번길 37",
    "lat":37.37163004,
    "lng":127.1394386
  },
  {
    "market_id":"53db6faf9a1e",
    "name":"미래그린시장",
    "sido":"경기도",
    "sigungu":"성남시",
    "cycle_raw":"매일",
    "cycle_label":"매일",
    "cycle_days":[

    ],
    "type_show":"상설",
    "address":"경기도 성남시 분당구 불정로386번길 10 (효자촌미래타운아파트)",
    "lat":37.37341572,
    "lng":127.1380307
  },
  {
    "market_id":"7932291472f2",
    "name":"미래타운제2종합시장",
    "sido":"경기도",
    "sigungu":"성남시",
    "cycle_raw":"매일",
    "cycle_label":"매일",
    "cycle_days":[

    ],
    "type_show":"상설",
    "address":"경기도 성남시 분당구 불정로376번길 31",
    "lat":37.37225503,
    "lng":127.1388863
  },
  {
    "market_id":"0d0937715b14",
    "name":"분당우성시장",
    "sido":"경기도",
    "sigungu":"성남시",
    "cycle_raw":"매일",
    "cycle_label":"매일",
    "cycle_days":[

    ],
    "type_show":"상설",
    "address":"경기도 성남시 분당구 중앙공원로40번길 42",
    "lat":37.37818238,
    "lng":127.1323819
  },
  {
    "market_id":"8ae4bd34a160",
    "name":"동신종합시장",
    "sido":"경기도",
    "sigungu":"성남시",
    "cycle_raw":"매일",
    "cycle_label":"매일",
    "cycle_days":[

    ],
    "type_show":"상설",
    "address":"경기도 성남시 분당구 돌마로 361",
    "lat":37.37062115,
    "lng":127.1229653
  },
  {
    "market_id":"a5208456fd3e",
    "name":"현대프라자시장",
    "sido":"경기도",
    "sigungu":"성남시",
    "cycle_raw":"매일",
    "cycle_label":"매일",
    "cycle_days":[

    ],
    "type_show":"상설",
    "address":"경기도 성남시 분당구 돌마로 364",
    "lat":37.3699897,
    "lng":127.1236643
  },
  {
    "market_id":"75dbf6926185",
    "name":"분당종합시장",
    "sido":"경기도",
    "sigungu":"성남시",
    "cycle_raw":"매일",
    "cycle_label":"매일",
    "cycle_days":[

    ],
    "type_show":"상설",
    "address":"경기도 성남시 분당구 돌마로 366번길 42",
    "lat":37.36718424,
    "lng":127.1267528
  },
  {
    "market_id":"01590627adb0",
    "name":"코끼리시장",
    "sido":"경기도",
    "sigungu":"성남시",
    "cycle_raw":"매일",
    "cycle_label":"매일",
    "cycle_days":[

    ],
    "type_show":"상설",
    "address":"경기도 성남시 분당구 내정로 166번길 7-6",
    "lat":37.37314665,
    "lng":127.1204067
  },
  {
    "market_id":"c318b72f47bd",
    "name":"돌고래시장",
    "sido":"경기도",
    "sigungu":"성남시",
    "cycle_raw":"매일",
    "cycle_label":"매일",
    "cycle_days":[

    ],
    "type_show":"상설",
    "address":"경기도 성남시 분당구 내정로174번길 42 (파크타운서안아파트)",
    "lat":37.37153075,
    "lng":127.1221765
  },
  {
    "market_id":"e37e8ddbbaa7",
    "name":"제천고추시장",
    "sido":"충청북도",
    "sigungu":"제천시",
    "cycle_raw":"매일",
    "cycle_label":"매일",
    "cycle_days":[

    ],
    "type_show":"상설",
    "address":"충청북도 제천시 바이오밸리로 212",
    "lat":37.15643952,
    "lng":128.1750444
  },
  {
    "market_id":"9fdc27bdd70e",
    "name":"제천역전한마음시장",
    "sido":"충청북도",
    "sigungu":"제천시",
    "cycle_raw":"3일+8일",
    "cycle_label":"3·8",
    "cycle_days":[
      3,
      8
    ],
    "type_show":"3·8장",
    "address":"충청북도 제천시 내토로 28길 12",
    "lat":37.1289856,
    "lng":128.2064541
  },
  {
    "market_id":"a8730460e3d4",
    "name":"제천약초시장",
    "sido":"충청북도",
    "sigungu":"제천시",
    "cycle_raw":"매일",
    "cycle_label":"매일",
    "cycle_days":[

    ],
    "type_show":"상설",
    "address":"충청북도 제천시 원화산로 121",
    "lat":37.12788708,
    "lng":128.219591
  },
  {
    "market_id":"b148b97d8e3c",
    "name":"동문전통시장",
    "sido":"충청북도",
    "sigungu":"제천시",
    "cycle_raw":"매일",
    "cycle_label":"매일",
    "cycle_days":[

    ],
    "type_show":"상설",
    "address":"충청북도 제천시 용두천로 125",
    "lat":37.13850912,
    "lng":128.2135267
  },
  {
    "market_id":"4dabca2d739c",
    "name":"내토전통시장",
    "sido":"충청북도",
    "sigungu":"제천시",
    "cycle_raw":"매일",
    "cycle_label":"매일",
    "cycle_days":[

    ],
    "type_show":"상설",
    "address":"충청북도 제천시 용두천로 11길 5",
    "lat":37.1373583,
    "lng":128.2124054
  },
  {
    "market_id":"a7d701dd5001",
    "name":"음성시장",
    "sido":"충청북도",
    "sigungu":"음성군",
    "cycle_raw":"2일+7일",
    "cycle_label":"2·7",
    "cycle_days":[
      2,
      7
    ],
    "type_show":"2·7장",
    "address":"충청북도 음성군 음성읍 문화1길 14",
    "lat":36.93816952,
    "lng":127.6921309
  },
  {
    "market_id":"8721119c132e",
    "name":"단양구경시장(단양인정시장)",
    "sido":"충청북도",
    "sigungu":"단양군",
    "cycle_raw":"1일+6일",
    "cycle_label":"1·6",
    "cycle_days":[
      1,
      6
    ],
    "type_show":"1·6장",
    "address":"충청북도 단양군 단양읍 도전5길 31",
    "lat":36.9824892,
    "lng":128.3699866
  },
  {
    "market_id":"cc2f5c88345a",
    "name":"박달재전통시장",
    "sido":"충청북도",
    "sigungu":"제천시",
    "cycle_raw":"1일+6일",
    "cycle_label":"1·6",
    "cycle_days":[
      1,
      6
    ],
    "type_show":"1·6장",
    "address":"충청북도 제천시 백운면 평동로 4-8",
    "lat":37.13820858,
    "lng":128.02257
  },
  {
    "market_id":"ff31850c99f0",
    "name":"청천전통시장",
    "sido":"충청북도",
    "sigungu":"괴산군",
    "cycle_raw":"5일+10일",
    "cycle_label":"5·10",
    "cycle_days":[
      5,
      10
    ],
    "type_show":"5·10장",
    "address":"충청북도 괴산군 청천면 청천2길 10",
    "lat":36.65914155,
    "lng":127.7378523
  },
  {
    "market_id":"da2f9ae1439d",
    "name":"성환이화시장",
    "sido":"충청남도",
    "sigungu":"천안시",
    "cycle_raw":"1일+6일",
    "cycle_label":"1·6",
    "cycle_days":[
      1,
      6
    ],
    "type_show":"1·6장",
    "address":"충청남도 천안시 서북구 성환읍 종합시장길 17",
    "lat":36.91925493,
    "lng":127.1298906
  },
  {
    "market_id":"39728d65002e",
    "name":"삼성시장",
    "sido":"충청북도",
    "sigungu":"음성군",
    "cycle_raw":"1일+6일",
    "cycle_label":"1·6",
    "cycle_days":[
      1,
      6
    ],
    "type_show":"1·6장",
    "address":"충청북도 음성군 삼성면 대성로 608-2",
    "lat":37.01800836,
    "lng":127.4991966
  },
  {
    "market_id":"a9013d406df3",
    "name":"대소시장",
    "sido":"충청북도",
    "sigungu":"음성군",
    "cycle_raw":"3일+8일",
    "cycle_label":"3·8",
    "cycle_days":[
      3,
      8
    ],
    "type_show":"3·8장",
    "address":"충청북도 음성군 대소면 오산로 36",
    "lat":36.96654372,
    "lng":127.4850145
  },
  {
    "market_id":"59c197232d75",
    "name":"무극시장",
    "sido":"충청북도",
    "sigungu":"음성군",
    "cycle_raw":"5일+10일",
    "cycle_label":"5·10",
    "cycle_days":[
      5,
      10
    ],
    "type_show":"5·10장",
    "address":"충청북도 음성군 금왕읍 무극로308번길 12-2",
    "lat":36.99267414,
    "lng":127.5960077
  },
  {
    "market_id":"b2cc0e59198a",
    "name":"감곡시장",
    "sido":"충청북도",
    "sigungu":"음성군",
    "cycle_raw":"3일+8일",
    "cycle_label":"3·8",
    "cycle_days":[
      3,
      8
    ],
    "type_show":"3·8장",
    "address":"충청북도 음성군 감곡면 장감로 132번길 22",
    "lat":37.11822831,
    "lng":127.6391733
  },
  {
    "market_id":"4ee1aa28b28d",
    "name":"옥천공설시장",
    "sido":"충청북도",
    "sigungu":"옥천군",
    "cycle_raw":"매일",
    "cycle_label":"매일",
    "cycle_days":[

    ],
    "type_show":"상설",
    "address":"충청북도 옥천군 옥천읍 삼금로 5길 5-14",
    "lat":36.30251559,
    "lng":127.5679118
  },
  {
    "market_id":"cf99ea0ffdd8",
    "name":"옥천상가",
    "sido":"충청북도",
    "sigungu":"옥천군",
    "cycle_raw":"매일",
    "cycle_label":"매일",
    "cycle_days":[

    ],
    "type_show":"상설",
    "address":"충청북도 옥천군 옥천읍 삼금로 45",
    "lat":36.302388,
    "lng":127.5682115
  },
  {
    "market_id":"57b12473c837",
    "name":"영동전통시장",
    "sido":"충청북도",
    "sigungu":"영동군",
    "cycle_raw":"4일+9일",
    "cycle_label":"4·9",
    "cycle_days":[
      4,
      9
    ],
    "type_show":"4·9장",
    "address":"충청북도 영동군 영동읍 계산리 694-13",
    "lat":36.17521123,
    "lng":127.7756379
  },
  {
    "market_id":"4aaa3e54e87d",
    "name":"영동중앙시장",
    "sido":"충청북도",
    "sigungu":"영동군",
    "cycle_raw":"4일+9일",
    "cycle_label":"4·9",
    "cycle_days":[
      4,
      9
    ],
    "type_show":"4·9장",
    "address":"충청북도 영동군 영동읍 계산리 693-27",
    "lat":36.17467013,
    "lng":127.7756992
  },
  {
    "market_id":"48cdbcd15799",
    "name":"회인재래시장",
    "sido":"충청북도",
    "sigungu":"보은군",
    "cycle_raw":"4일+9일",
    "cycle_label":"4·9",
    "cycle_days":[
      4,
      9
    ],
    "type_show":"4·9장",
    "address":"충청북도 보은군 회인면 회인로 34",
    "lat":36.49052262,
    "lng":127.5978628
  },
  {
    "market_id":"3ce3748b2c66",
    "name":"삼승원남시장(원남재래시장)",
    "sido":"충청북도",
    "sigungu":"보은군",
    "cycle_raw":"3일+8일",
    "cycle_label":"3·8",
    "cycle_days":[
      3,
      8
    ],
    "type_show":"3·8장",
    "address":"충청북도 보은군 삼승면 삼승탄부로 12",
    "lat":36.39692314,
    "lng":127.7331366
  },
  {
    "market_id":"540872d9b387",
    "name":"보은전통시장",
    "sido":"충청북도",
    "sigungu":"보은군",
    "cycle_raw":"1일+6일",
    "cycle_label":"1·6",
    "cycle_days":[
      1,
      6
    ],
    "type_show":"1·6장",
    "address":"충청북도 보은군 보은읍 삼산로 17-1",
    "lat":36.48430017,
    "lng":127.7201103
  },
  {
    "market_id":"09a711066a54",
    "name":"결초보은시장(구 보은종합시장)",
    "sido":"충청북도",
    "sigungu":"보은군",
    "cycle_raw":"1일+6일",
    "cycle_label":"1·6",
    "cycle_days":[
      1,
      6
    ],
    "type_show":"1·6장",
    "address":"충청북도 보은군 보은읍 삼산로3길 12-1",
    "lat":36.48291338,
    "lng":127.7193275
  },
  {
    "market_id":"6d972e81dba4",
    "name":"마로관기시장(관기재래시장)",
    "sido":"충청북도",
    "sigungu":"보은군",
    "cycle_raw":"4일+9일",
    "cycle_label":"4·9",
    "cycle_days":[
      4,
      9
    ],
    "type_show":"4·9장",
    "address":"충청북도 보은군 마로면 관기3길 6-7",
    "lat":36.43524115,
    "lng":127.8175958
  },
  {
    "market_id":"b1f46bd88676",
    "name":"매포전통시장(매포재래시장)",
    "sido":"충청북도",
    "sigungu":"단양군",
    "cycle_raw":"4일+9일",
    "cycle_label":"4·9",
    "cycle_days":[
      4,
      9
    ],
    "type_show":"4·9장",
    "address":"충청북도 단양군 매포읍 평동24길 8",
    "lat":37.03422177,
    "lng":128.2990703
  },
  {
    "market_id":"52b9cbfe3f30",
    "name":"당진전통시장",
    "sido":"충청남도",
    "sigungu":"당진시",
    "cycle_raw":"5일+10일",
    "cycle_label":"5·10",
    "cycle_days":[
      5,
      10
    ],
    "type_show":"5·10장",
    "address":"충청남도 당진시 당진시장길 100",
    "lat":36.88993159,
    "lng":126.6296051
  },
  {
    "market_id":"7ac01b1799a5",
    "name":"괴산전통시장",
    "sido":"충청북도",
    "sigungu":"괴산군",
    "cycle_raw":"3일+8일",
    "cycle_label":"3·8",
    "cycle_days":[
      3,
      8
    ],
    "type_show":"3·8장",
    "address":"충청북도 괴산군 괴산읍 읍내로 15길8-8",
    "lat":36.81122141,
    "lng":127.795017
  },
  {
    "market_id":"e86b79a85a24",
    "name":"무주시장(반딧불장터)",
    "sido":"전북특별차치도",
    "sigungu":"무주군",
    "cycle_raw":"1일+6일",
    "cycle_label":"1·6",
    "cycle_days":[
      1,
      6
    ],
    "type_show":"1·6장",
    "address":"전북특별차치도 무주군 무주읍 장터로 2",
    "lat":36.00464857,
    "lng":127.6535343
  },
  {
    "market_id":"7a504185090f",
    "name":"여수서시장주변시장",
    "sido":"전라남도",
    "sigungu":"여수시",
    "cycle_raw":"4일+9일",
    "cycle_label":"4·9",
    "cycle_days":[
      4,
      9
    ],
    "type_show":"4·9장",
    "address":"전라남도 여수시 중앙로 3-2",
    "lat":34.74075239,
    "lng":127.7283238
  },
  {
    "market_id":"b2e470fd6b60",
    "name":"부천제일시장",
    "sido":"경기도",
    "sigungu":"부천시",
    "cycle_raw":"매일",
    "cycle_label":"매일",
    "cycle_days":[

    ],
    "type_show":"상설",
    "address":"경기도 부천시 오정구 원종로85번길 84",
    "lat":37.52795693,
    "lng":126.8097237
  },
  {
    "market_id":"668fbb06bb3a",
    "name":"부평종합시장",
    "sido":"인천광역시",
    "sigungu":"부평구",
    "cycle_raw":"매일",
    "cycle_label":"매일",
    "cycle_days":[

    ],
    "type_show":"상설",
    "address":"인천광역시 부평구 부흥로316번길 38-3",
    "lat":37.49649796,
    "lng":126.7266075
  },
  {
    "market_id":"2cc8b4eea982",
    "name":"원미부흥시장",
    "sido":"경기도",
    "sigungu":"부천시",
    "cycle_raw":"매일",
    "cycle_label":"매일",
    "cycle_days":[

    ],
    "type_show":"상설",
    "address":"경기도 부천시 원미구 부천로96번길 80",
    "lat":37.49203622,
    "lng":126.7898115
  },
  {
    "market_id":"d721e9df7c93",
    "name":"영천시장",
    "sido":"서울특별시",
    "sigungu":"서대문구",
    "cycle_raw":"매일",
    "cycle_label":"매일",
    "cycle_days":[

    ],
    "type_show":"상설",
    "address":"서울특별시 서대문구 통일로 189-1",
    "lat":37.57033385,
    "lng":126.961853
  },
  {
    "market_id":"c6ef8cc8f5e8",
    "name":"오정시장",
    "sido":"경기도",
    "sigungu":"부천시",
    "cycle_raw":"매일",
    "cycle_label":"매일",
    "cycle_days":[

    ],
    "type_show":"상설",
    "address":"경기도 부천시 오정구 부천로470번길 50",
    "lat":37.52597863,
    "lng":126.7857002
  },
  {
    "market_id":"32b705d9c930",
    "name":"고리울동굴시장",
    "sido":"경기도",
    "sigungu":"부천시",
    "cycle_raw":"매일",
    "cycle_label":"매일",
    "cycle_days":[

    ],
    "type_show":"상설",
    "address":"경기도 부천시 오정구 고리울로64번길 36",
    "lat":37.52554379,
    "lng":126.8222757
  },
  {
    "market_id":"14e189dc138f",
    "name":"청과물시장",
    "sido":"경기도",
    "sigungu":"부천시",
    "cycle_raw":"매일",
    "cycle_label":"매일",
    "cycle_days":[

    ],
    "type_show":"상설",
    "address":"경기도 부천시 소사구 경인로206번길 43",
    "lat":37.48158095,
    "lng":126.7779919
  },
  {
    "market_id":"aff559d029c0",
    "name":"소사종합시장",
    "sido":"경기도",
    "sigungu":"부천시",
    "cycle_raw":"매일",
    "cycle_label":"매일",
    "cycle_days":[

    ],
    "type_show":"상설",
    "address":"경기도 부천시 소사구 호현로474번길 13-2",
    "lat":37.4796637,
    "lng":126.7939615
  },
  {
    "market_id":"96da229b5108",
    "name":"부천한신시장",
    "sido":"경기도",
    "sigungu":"부천시",
    "cycle_raw":"매일",
    "cycle_label":"매일",
    "cycle_days":[

    ],
    "type_show":"상설",
    "address":"경기도 부천시 소사구 은성로68번길 46",
    "lat":37.47312039,
    "lng":126.7980266
  },
  {
    "market_id":"15a8d2f27d99",
    "name":"부천자유시장",
    "sido":"경기도",
    "sigungu":"부천시",
    "cycle_raw":"매일",
    "cycle_label":"매일",
    "cycle_days":[

    ],
    "type_show":"상설",
    "address":"경기도 부천시 소사구 자유로 33",
    "lat":37.48410744,
    "lng":126.7799517
  },
  {
    "market_id":"0f2cd669c4e6",
    "name":"청량리수산시장",
    "sido":"서울특별시",
    "sigungu":"동대문구",
    "cycle_raw":"매일",
    "cycle_label":"매일",
    "cycle_days":[

    ],
    "type_show":"상설",
    "address":"서울특별시 동대문구 고산자로34길 48",
    "lat":37.57807246,
    "lng":127.0409472
  },
  {
    "market_id":"e7cf3bbd19aa",
    "name":"부천상동시장",
    "sido":"경기도",
    "sigungu":"부천시",
    "cycle_raw":"매일",
    "cycle_label":"매일",
    "cycle_days":[

    ],
    "type_show":"상설",
    "address":"경기도 부천시 원미구 석천로60번길 51",
    "lat":37.49235745,
    "lng":126.7642776
  },
  {
    "market_id":"bc801e2d7f4b",
    "name":"신흥시장",
    "sido":"경기도",
    "sigungu":"부천시",
    "cycle_raw":"매일",
    "cycle_label":"매일",
    "cycle_days":[

    ],
    "type_show":"상설",
    "address":"경기도 부천시 오정구 평천로 719",
    "lat":37.51533645,
    "lng":126.7705849
  },
  {
    "market_id":"ae57dd8f9a68",
    "name":"화곡본동시장",
    "sido":"서울특별시",
    "sigungu":"강서구",
    "cycle_raw":"매일",
    "cycle_label":"매일",
    "cycle_days":[

    ],
    "type_show":"상설",
    "address":"서울특별시 강서구 까치산로 35",
    "lat":37.54286486,
    "lng":126.8441413
  },
  {
    "market_id":"1ef3f503e215",
    "name":"문창전통시장",
    "sido":"대전광역시",
    "sigungu":"중구",
    "cycle_raw":"매일",
    "cycle_label":"매일",
    "cycle_days":[

    ],
    "type_show":"상설",
    "address":"대전광역시 중구 보문로 20번길 22",
    "lat":36.31551575,
    "lng":127.4381793
  },
  {
    "market_id":"a994d76f5cec",
    "name":"세아프라자상가",
    "sido":"경기도",
    "sigungu":"동두천시",
    "cycle_raw":"매일",
    "cycle_label":"매일",
    "cycle_days":[

    ],
    "type_show":"상설",
    "address":"경기도 동두천시 큰시장로 64",
    "lat":37.90072388,
    "lng":127.0505851
  },
  {
    "market_id":"39113ed1db51",
    "name":"동두천큰시장",
    "sido":"경기도",
    "sigungu":"동두천시",
    "cycle_raw":"5일+10일",
    "cycle_label":"5·10",
    "cycle_days":[
      5,
      10
    ],
    "type_show":"5·10장",
    "address":"경기도 동두천시 큰시장로 52",
    "lat":37.90048898,
    "lng":127.0520744
  },
  {
    "market_id":"c4048c37c1b5",
    "name":"중앙시장",
    "sido":"경기도",
    "sigungu":"동두천시",
    "cycle_raw":"매일",
    "cycle_label":"매일",
    "cycle_days":[

    ],
    "type_show":"상설",
    "address":"경기도 동두천시 중앙로285번길 9",
    "lat":37.90690295,
    "lng":127.0537505
  },
  {
    "market_id":"7206c7b500c9",
    "name":"동두천제일시장",
    "sido":"경기도",
    "sigungu":"동두천시",
    "cycle_raw":"매일",
    "cycle_label":"매일",
    "cycle_days":[

    ],
    "type_show":"상설",
    "address":"경기도 동두천시 정장로 11-12",
    "lat":37.90517383,
    "lng":127.0522256
  },
  {
    "market_id":"1054557f3337",
    "name":"남양주장현 전통시장",
    "sido":"경기도",
    "sigungu":"남양주시",
    "cycle_raw":"2일+7일",
    "cycle_label":"2·7",
    "cycle_days":[
      2,
      7
    ],
    "type_show":"2·7장",
    "address":"경기도 남양주시 진접읍 장현로 77",
    "lat":37.71761125,
    "lng":127.1808928
  },
  {
    "market_id":"1635e05e5d9f",
    "name":"양곡오라니장터시장",
    "sido":"경기도",
    "sigungu":"김포시",
    "cycle_raw":"매일",
    "cycle_label":"매일",
    "cycle_days":[

    ],
    "type_show":"상설",
    "address":"경기도 김포시 양촌읍 양곡1로56번길 13",
    "lat":37.65616267,
    "lng":126.6237015
  },
  {
    "market_id":"33d8ac67e022",
    "name":"양곡시장",
    "sido":"경기도",
    "sigungu":"김포시",
    "cycle_raw":"매일",
    "cycle_label":"매일",
    "cycle_days":[

    ],
    "type_show":"상설",
    "address":"경기도 김포시 양촌읍 양곡1로 42-2",
    "lat":37.65446014,
    "lng":126.6238008
  },
  {
    "market_id":"4626a0ae8e25",
    "name":"통진시장",
    "sido":"경기도",
    "sigungu":"김포시",
    "cycle_raw":"매일",
    "cycle_label":"매일",
    "cycle_days":[

    ],
    "type_show":"상설",
    "address":"경기도 김포시 통진읍 서암로84번길 29",
    "lat":37.69129373,
    "lng":126.5997032
  },
  {
    "market_id":"3e94cfd4bd1f",
    "name":"단촌정기시장",
    "sido":"경상북도",
    "sigungu":"의성군",
    "cycle_raw":"5일+10일",
    "cycle_label":"5·10",
    "cycle_days":[
      5,
      10
    ],
    "type_show":"5·10장",
    "address":"경상북도 의성군 단촌면 장터길15",
    "lat":36.42254768,
    "lng":128.6739013
  },
  {
    "market_id":"3ca33ad27785",
    "name":"하남수산물전통시장",
    "sido":"경기도",
    "sigungu":"하남시",
    "cycle_raw":"매일",
    "cycle_label":"매일",
    "cycle_days":[

    ],
    "type_show":"상설",
    "address":"경기도 하남시 하남대로 1043-17",
    "lat":37.54878774,
    "lng":127.1847843
  },
  {
    "market_id":"2f18fb89858e",
    "name":"구리전통시장",
    "sido":"경기도",
    "sigungu":"구리시",
    "cycle_raw":"매일",
    "cycle_label":"매일",
    "cycle_days":[

    ],
    "type_show":"상설",
    "address":"경기도 구리시 검배로 6번길 31",
    "lat":37.59953937,
    "lng":127.1399081
  },
  {
    "market_id":"e67a4c73a7c5",
    "name":"신장전통시장",
    "sido":"경기도",
    "sigungu":"하남시",
    "cycle_raw":"매일",
    "cycle_label":"매일",
    "cycle_days":[

    ],
    "type_show":"상설",
    "address":"경기도 하남시 신장1로9번길 57-7",
    "lat":37.53844526,
    "lng":127.2059739
  },
  {
    "market_id":"c83c251d7468",
    "name":"광명전통시장",
    "sido":"경기도",
    "sigungu":"광명시",
    "cycle_raw":"매일",
    "cycle_label":"매일",
    "cycle_days":[

    ],
    "type_show":"상설",
    "address":"경기도 광명시 광이로13번길 17-5",
    "lat":37.47994501,
    "lng":126.8561659
  },
  {
    "market_id":"9d40245255ce",
    "name":"광명새마을시장",
    "sido":"경기도",
    "sigungu":"광명시",
    "cycle_raw":"매일",
    "cycle_label":"매일",
    "cycle_days":[

    ],
    "type_show":"상설",
    "address":"경기도 광명시 광명로 831",
    "lat":37.47365007,
    "lng":126.8513959
  },
  {
    "market_id":"607c824103eb",
    "name":"제일쇼핑시장",
    "sido":"경기도",
    "sigungu":"과천시",
    "cycle_raw":"매일",
    "cycle_label":"매일",
    "cycle_days":[

    ],
    "type_show":"상설",
    "address":"경기도 과천시 별양상가 2로 14",
    "lat":37.42733209,
    "lng":126.9929952
  },
  {
    "market_id":"747eedb458bb",
    "name":"과천새서울프라자시장",
    "sido":"경기도",
    "sigungu":"과천시",
    "cycle_raw":"매일",
    "cycle_label":"매일",
    "cycle_days":[

    ],
    "type_show":"상설",
    "address":"경기도 과천시 별양상가 2로 20",
    "lat":37.42682749,
    "lng":126.9925547
  },
  {
    "market_id":"3c4661b31900",
    "name":"덕이동패션1번지",
    "sido":"경기도",
    "sigungu":"고양시",
    "cycle_raw":"매일",
    "cycle_label":"매일",
    "cycle_days":[

    ],
    "type_show":"상설",
    "address":"경기도 고양시 일산서구 탄중로101번길 13",
    "lat":37.69302668,
    "lng":126.7557864
  },
  {
    "market_id":"45f54da48ee6",
    "name":"일산시장",
    "sido":"경기도",
    "sigungu":"고양시",
    "cycle_raw":"매일",
    "cycle_label":"매일",
    "cycle_days":[

    ],
    "type_show":"상설",
    "address":"경기도 고양시 일산서구 일청로 12번길 9",
    "lat":37.68562383,
    "lng":126.7708323
  },
  {
    "market_id":"9dc9e9fb3fd8",
    "name":"능곡시장",
    "sido":"경기도",
    "sigungu":"고양시",
    "cycle_raw":"2일+7일",
    "cycle_label":"2·7",
    "cycle_days":[
      2,
      7
    ],
    "type_show":"2·7장",
    "address":"경기도 고양시 덕양구 능곡로 12",
    "lat":37.62134419,
    "lng":126.8207793
  },
  {
    "market_id":"f14800ec5421",
    "name":"원당시장",
    "sido":"경기도",
    "sigungu":"고양시",
    "cycle_raw":"매일",
    "cycle_label":"매일",
    "cycle_days":[

    ],
    "type_show":"상설",
    "address":"경기도 고양시 덕양구 호국로 790번길 17",
    "lat":37.65628119,
    "lng":126.8372523
  },
  {
    "market_id":"d21cf16e5a9f",
    "name":"청평여울시장",
    "sido":"경기도",
    "sigungu":"가평군",
    "cycle_raw":"2일+7일",
    "cycle_label":"2·7",
    "cycle_days":[
      2,
      7
    ],
    "type_show":"2·7장",
    "address":"경기도 가평군 청평면 시장중앙로19",
    "lat":37.73472058,
    "lng":127.4158569
  },
  {
    "market_id":"a2588776f9b2",
    "name":"봉천제일종합시장",
    "sido":"서울특별시",
    "sigungu":"관악구",
    "cycle_raw":"매일",
    "cycle_label":"매일",
    "cycle_days":[

    ],
    "type_show":"상설",
    "address":"서울특별시 관악구 청룡2길 29",
    "lat":37.48125387,
    "lng":126.944419
  },
  {
    "market_id":"9b7eef3d4aba",
    "name":"설악눈메골시장",
    "sido":"경기도",
    "sigungu":"가평군",
    "cycle_raw":"1일+6일",
    "cycle_label":"1·6",
    "cycle_days":[
      1,
      6
    ],
    "type_show":"1·6장",
    "address":"경기도 가평군 설악면 신천중앙로 104-1",
    "lat":37.67738641,
    "lng":127.492189
  },
  {
    "market_id":"9398040f24b4",
    "name":"횡성시장",
    "sido":"강원특별자치도",
    "sigungu":"횡성군",
    "cycle_raw":"1일+6일",
    "cycle_label":"1·6",
    "cycle_days":[
      1,
      6
    ],
    "type_show":"1·6장",
    "address":"강원특별자치도 횡성군 횡성읍 읍상리 277-3",
    "lat":37.48980622,
    "lng":127.9868107
  },
  {
    "market_id":"a6173306503c",
    "name":"화천시장",
    "sido":"강원특별자치도",
    "sigungu":"화천군",
    "cycle_raw":"3일+8일",
    "cycle_label":"3·8",
    "cycle_days":[
      3,
      8
    ],
    "type_show":"3·8장",
    "address":"강원특별자치도 화천군 화천읍 중앙로 24",
    "lat":38.10390585,
    "lng":127.7064275
  },
  {
    "market_id":"8c671cf0010d",
    "name":"홍천시장",
    "sido":"강원특별자치도",
    "sigungu":"홍천군",
    "cycle_raw":"매일",
    "cycle_label":"매일",
    "cycle_days":[

    ],
    "type_show":"상설",
    "address":"강원특별자치도 홍천군 홍천읍 번영로 53",
    "lat":37.6905533,
    "lng":127.8862031
  },
  {
    "market_id":"b71055ba7a92",
    "name":"홍천중앙시장",
    "sido":"강원특별자치도",
    "sigungu":"홍천군",
    "cycle_raw":"매일",
    "cycle_label":"매일",
    "cycle_days":[

    ],
    "type_show":"상설",
    "address":"강원특별자치도 홍천군 홍천읍 홍천로 8길 17",
    "lat":37.69108507,
    "lng":127.8861626
  },
  {
    "market_id":"5eb0dbcf94b8",
    "name":"평창올림픽시장(평창전통시장)",
    "sido":"강원특별자치도",
    "sigungu":"평창군",
    "cycle_raw":"5일+10일",
    "cycle_label":"5·10",
    "cycle_days":[
      5,
      10
    ],
    "type_show":"5·10장",
    "address":"강원특별자치도 평창군 평창읍 평창중앙로 27-26",
    "lat":37.3672356,
    "lng":128.3947764
  },
  {
    "market_id":"7e0582291603",
    "name":"진부전통시장",
    "sido":"강원특별자치도",
    "sigungu":"평창군",
    "cycle_raw":"3일+8일",
    "cycle_label":"3·8",
    "cycle_days":[
      3,
      8
    ],
    "type_show":"3·8장",
    "address":"강원특별자치도 평창군 진부면 진부새싹길 28-7",
    "lat":37.63821324,
    "lng":128.5579223
  },
  {
    "market_id":"af02dad6d1d5",
    "name":"양동건어물시장",
    "sido":"광주광역시",
    "sigungu":"서구",
    "cycle_raw":"매일",
    "cycle_label":"매일",
    "cycle_days":[

    ],
    "type_show":"상설",
    "address":"광주광역시 서구 천변좌로 254번길 6",
    "lat":35.15316871,
    "lng":126.9033339
  },
  {
    "market_id":"e57858c96a5a",
    "name":"평창대화시장",
    "sido":"강원특별자치도",
    "sigungu":"평창군",
    "cycle_raw":"4일+9일",
    "cycle_label":"4·9",
    "cycle_days":[
      4,
      9
    ],
    "type_show":"4·9장",
    "address":"강원특별자치도 평창군 대화면 대화4길 20",
    "lat":37.50118639,
    "lng":128.4546766
  },
  {
    "market_id":"291dac26749d",
    "name":"황지자유시장",
    "sido":"강원특별자치도",
    "sigungu":"태백시",
    "cycle_raw":"매일",
    "cycle_label":"매일",
    "cycle_days":[

    ],
    "type_show":"상설",
    "address":"강원특별자치도 태백시 시장안1길 18-1",
    "lat":37.17307273,
    "lng":128.9929989
  },
  {
    "market_id":"8ccf0cf5396f",
    "name":"장성중앙시장",
    "sido":"강원특별자치도",
    "sigungu":"태백시",
    "cycle_raw":"매일",
    "cycle_label":"매일",
    "cycle_days":[

    ],
    "type_show":"상설",
    "address":"강원특별자치도 태백시 장성1길 190 (장성시장)",
    "lat":37.10068146,
    "lng":129.0097148
  },
  {
    "market_id":"3fd707c26596",
    "name":"춘천후평시장",
    "sido":"강원특별자치도",
    "sigungu":"춘천시",
    "cycle_raw":"매일",
    "cycle_label":"매일",
    "cycle_days":[

    ],
    "type_show":"상설",
    "address":"강원특별자치도 춘천시 효평길 104",
    "lat":37.88078864,
    "lng":127.7467911
  },
  {
    "market_id":"abff409bee26",
    "name":"연원시장",
    "sido":"충청북도",
    "sigungu":"충주시",
    "cycle_raw":"4일+9일",
    "cycle_label":"4·9",
    "cycle_days":[
      4,
      9
    ],
    "type_show":"4·9장",
    "address":"충청북도 충주시 금곡로 31",
    "lat":36.98929115,
    "lng":127.9348022
  },
  {
    "market_id":"ad637730a7ed",
    "name":"연수상가",
    "sido":"충청북도",
    "sigungu":"충주시",
    "cycle_raw":"매일",
    "cycle_label":"매일",
    "cycle_days":[

    ],
    "type_show":"상설",
    "address":"충청북도 충주시 번영대로 125",
    "lat":36.98746934,
    "lng":127.9315787
  },
  {
    "market_id":"eea71adf6d6e",
    "name":"엄정내창시장",
    "sido":"충청북도",
    "sigungu":"충주시",
    "cycle_raw":"3일+8일",
    "cycle_label":"3·8",
    "cycle_days":[
      3,
      8
    ],
    "type_show":"3·8장",
    "address":"충청북도 충주시 엄정면 미내장터길 15",
    "lat":37.08614422,
    "lng":127.9163422
  },
  {
    "market_id":"a56dbc0cf6b8",
    "name":"성서중심시장(성서시장,문화의거리 통합)",
    "sido":"충청북도",
    "sigungu":"충주시",
    "cycle_raw":"매일",
    "cycle_label":"매일",
    "cycle_days":[

    ],
    "type_show":"상설",
    "address":"충청북도 충주시 성서8길 21",
    "lat":36.97133411,
    "lng":127.9323927
  },
  {
    "market_id":"d98636a39ca3",
    "name":"관아골상가",
    "sido":"충청북도",
    "sigungu":"충주시",
    "cycle_raw":"매일",
    "cycle_label":"매일",
    "cycle_days":[

    ],
    "type_show":"상설",
    "address":"충청북도 충주시 관아4길 8",
    "lat":36.97012329,
    "lng":127.9351179
  },
  {
    "market_id":"76028b1b9e8b",
    "name":"무학시장",
    "sido":"충청북도",
    "sigungu":"충주시",
    "cycle_raw":"매일",
    "cycle_label":"매일",
    "cycle_days":[

    ],
    "type_show":"상설",
    "address":"충청북도 충주시 무학1길 19",
    "lat":36.97459102,
    "lng":127.9272665
  },
  {
    "market_id":"054413ec6f16",
    "name":"목행시장",
    "sido":"충청북도",
    "sigungu":"충주시",
    "cycle_raw":"3일+8일",
    "cycle_label":"3·8",
    "cycle_days":[
      3,
      8
    ],
    "type_show":"3·8장",
    "address":"충청북도 충주시 행정9길 35",
    "lat":37.01395405,
    "lng":127.9173286
  },
  {
    "market_id":"bef4baa1122d",
    "name":"충주농산물종합시장(중앙청과시장)",
    "sido":"충청북도",
    "sigungu":"충주시",
    "cycle_raw":"매일",
    "cycle_label":"매일",
    "cycle_days":[

    ],
    "type_show":"상설",
    "address":"충청북도 충주시 목행산단7로 24",
    "lat":37.00399789,
    "lng":127.9230847
  },
  {
    "market_id":"bbd839599a67",
    "name":"하복대시장",
    "sido":"충청북도",
    "sigungu":"청주시",
    "cycle_raw":"매일",
    "cycle_label":"매일",
    "cycle_days":[

    ],
    "type_show":"상설",
    "address":"충청북도 청주시 흥덕구 증안로34번길 20-1",
    "lat":36.63564465,
    "lng":127.4274621
  },
  {
    "market_id":"6610c3ec61cd",
    "name":"직지시장",
    "sido":"충청북도",
    "sigungu":"청주시",
    "cycle_raw":"매일",
    "cycle_label":"매일",
    "cycle_days":[

    ],
    "type_show":"상설",
    "address":"충청북도 청주시 흥덕구 직지대로 639번길 88",
    "lat":36.64658274,
    "lng":127.466327
  },
  {
    "market_id":"255cb967c99f",
    "name":"복대가경시장",
    "sido":"충청북도",
    "sigungu":"청주시",
    "cycle_raw":"매일",
    "cycle_label":"매일",
    "cycle_days":[

    ],
    "type_show":"상설",
    "address":"충청북도 청주시 흥덕구 복대로 146번길 42",
    "lat":36.6295133,
    "lng":127.4432597
  },
  {
    "market_id":"631481eb938f",
    "name":"가경터미널시장",
    "sido":"충청북도",
    "sigungu":"청주시",
    "cycle_raw":"매일",
    "cycle_label":"매일",
    "cycle_days":[

    ],
    "type_show":"상설",
    "address":"충청북도 청주시 흥덕구 풍년로160번길 41-4",
    "lat":36.62770577,
    "lng":127.434909
  },
  {
    "market_id":"806db1ecbd5c",
    "name":"오창전통시장",
    "sido":"충청북도",
    "sigungu":"청주시",
    "cycle_raw":"3일+8일",
    "cycle_label":"3·8",
    "cycle_days":[
      3,
      8
    ],
    "type_show":"3·8장",
    "address":"충청북도 청주시 청원구 오창읍 팔결로 715",
    "lat":36.74173743,
    "lng":127.455627
  },
  {
    "market_id":"1c4b9d55f682",
    "name":"내수전통시장",
    "sido":"충청북도",
    "sigungu":"청주시",
    "cycle_raw":"5일+10일",
    "cycle_label":"5·10",
    "cycle_days":[
      5,
      10
    ],
    "type_show":"5·10장",
    "address":"충청북도 청주시 청원구 내수읍 내수로 726",
    "lat":36.72629088,
    "lng":127.536012
  },
  {
    "market_id":"2ad57730470e",
    "name":"청주두꺼비시장(구수곡시장)",
    "sido":"충청북도",
    "sigungu":"청주시",
    "cycle_raw":"매일",
    "cycle_label":"매일",
    "cycle_days":[

    ],
    "type_show":"상설",
    "address":"충청북도 청주시 서원구 수곡로 58번길 7-2",
    "lat":36.61744097,
    "lng":127.4729928
  },
  {
    "market_id":"eb0a00323699",
    "name":"진천중앙시장",
    "sido":"충청북도",
    "sigungu":"진천군",
    "cycle_raw":"5일+10일",
    "cycle_label":"5·10",
    "cycle_days":[
      5,
      10
    ],
    "type_show":"5·10장",
    "address":"충청북도 진천군 진천읍 중앙동6길 23",
    "lat":36.85685858,
    "lng":127.4423712
  },
  {
    "market_id":"158796acbf5d",
    "name":"원마루시장",
    "sido":"충청북도",
    "sigungu":"청주시",
    "cycle_raw":"매일",
    "cycle_label":"매일",
    "cycle_days":[

    ],
    "type_show":"상설",
    "address":"충청북도 청주시 서원구 원마루로8번길 21",
    "lat":36.60903727,
    "lng":127.496414
  },
  {
    "market_id":"01ec624b4340",
    "name":"운수대통 생거진천전통시장",
    "sido":"충청북도",
    "sigungu":"진천군",
    "cycle_raw":"5일+10일",
    "cycle_label":"5·10",
    "cycle_days":[
      5,
      10
    ],
    "type_show":"5·10장",
    "address":"충청북도 진천군 진천읍 원덕로390",
    "lat":36.85993722,
    "lng":127.4501613
  },
  {
    "market_id":"4f33036bfda9",
    "name":"사직시장",
    "sido":"충청북도",
    "sigungu":"청주시",
    "cycle_raw":"매일",
    "cycle_label":"매일",
    "cycle_days":[

    ],
    "type_show":"상설",
    "address":"충청북도 청주시 서원구 사직대로 265번길 7",
    "lat":36.63614197,
    "lng":127.4768752
  },
  {
    "market_id":"88b259d5977a",
    "name":"육거리종합시장",
    "sido":"충청북도",
    "sigungu":"청주시",
    "cycle_raw":"2일+7일",
    "cycle_label":"2·7",
    "cycle_days":[
      2,
      7
    ],
    "type_show":"2·7장",
    "address":"충청북도 청주시 상당구 청남로2197번길 42",
    "lat":36.62794095,
    "lng":127.4881836
  },
  {
    "market_id":"a998bc3de9be",
    "name":"서문시장",
    "sido":"충청북도",
    "sigungu":"청주시",
    "cycle_raw":"매일",
    "cycle_label":"매일",
    "cycle_days":[

    ],
    "type_show":"상설",
    "address":"충청북도 청주시 상당구 남사로 89번길 61",
    "lat":36.63511643,
    "lng":127.4853665
  },
  {
    "market_id":"2f5b76f473f0",
    "name":"중앙시장",
    "sido":"충청북도",
    "sigungu":"청주시",
    "cycle_raw":"매일",
    "cycle_label":"매일",
    "cycle_days":[

    ],
    "type_show":"상설",
    "address":"충청북도 청주시 상당구 중앙로 18",
    "lat":36.63883141,
    "lng":127.4889294
  },
  {
    "market_id":"4985ea3af0e0",
    "name":"청주사창시장",
    "sido":"충청북도",
    "sigungu":"청주시",
    "cycle_raw":"매일",
    "cycle_label":"매일",
    "cycle_days":[

    ],
    "type_show":"상설",
    "address":"충청북도 청주시 서원구 사직대로164번길 36",
    "lat":36.63361051,
    "lng":127.4652985
  },
  {
    "market_id":"1c34ce6732e3",
    "name":"증평장뜰시장",
    "sido":"충청북도",
    "sigungu":"증평군",
    "cycle_raw":"1일+6일",
    "cycle_label":"1·6",
    "cycle_days":[
      1,
      6
    ],
    "type_show":"1·6장",
    "address":"충청북도 증평군 증평읍 장뜰로 58-1",
    "lat":36.78338958,
    "lng":127.5829564
  },
  {
    "market_id":"7d1f67f5a205",
    "name":"제천중앙시장",
    "sido":"충청북도",
    "sigungu":"제천시",
    "cycle_raw":"매일",
    "cycle_label":"매일",
    "cycle_days":[

    ],
    "type_show":"상설",
    "address":"충청북도 제천시 풍양로 108",
    "lat":37.13662174,
    "lng":128.211302
  },
  {
    "market_id":"54b1f16f0668",
    "name":"충주자유시장",
    "sido":"충청북도",
    "sigungu":"충주시",
    "cycle_raw":"5일+10일",
    "cycle_label":"5·10",
    "cycle_days":[
      5,
      10
    ],
    "type_show":"5·10장",
    "address":"충청북도 충주시 충인6길 16",
    "lat":36.97393363,
    "lng":127.9306725
  },
  {
    "market_id":"da014d6192ed",
    "name":"충주옹달샘시장",
    "sido":"충청북도",
    "sigungu":"충주시",
    "cycle_raw":"매일",
    "cycle_label":"매일",
    "cycle_days":[

    ],
    "type_show":"상설",
    "address":"충청북도 충주시 지곡10길 35",
    "lat":36.9646875,
    "lng":127.9325814
  },
  {
    "market_id":"192e290f588b",
    "name":"송현시장",
    "sido":"인천광역시",
    "sigungu":"동구",
    "cycle_raw":"매일",
    "cycle_label":"매일",
    "cycle_days":[

    ],
    "type_show":"상설",
    "address":"인천광역시 동구 화도진로44번길 18",
    "lat":37.476161,
    "lng":126.634645
  },
  {
    "market_id":"8f1e98f9296b",
    "name":"송림공구상가",
    "sido":"인천광역시",
    "sigungu":"동구",
    "cycle_raw":"매일",
    "cycle_label":"매일",
    "cycle_days":[

    ],
    "type_show":"상설",
    "address":"인천광역시 동구 봉수대로 98",
    "lat":37.48359521,
    "lng":126.6622078
  },
  {
    "market_id":"75b9e6607935",
    "name":"인천산업용품유통센터",
    "sido":"인천광역시",
    "sigungu":"동구",
    "cycle_raw":"매일",
    "cycle_label":"매일",
    "cycle_days":[

    ],
    "type_show":"상설",
    "address":"인천광역시 동구 방축로 83번길 23",
    "lat":37.48482619,
    "lng":126.6547965
  },
  {
    "market_id":"75e576392552",
    "name":"현대시장",
    "sido":"인천광역시",
    "sigungu":"동구",
    "cycle_raw":"매일",
    "cycle_label":"매일",
    "cycle_days":[

    ],
    "type_show":"상설",
    "address":"인천광역시 동구 송림로109번길 21",
    "lat":37.47748437,
    "lng":126.646125
  },
  {
    "market_id":"d3a7b95b5b11",
    "name":"동부시장",
    "sido":"인천광역시",
    "sigungu":"동구",
    "cycle_raw":"매일",
    "cycle_label":"매일",
    "cycle_days":[

    ],
    "type_show":"상설",
    "address":"인천광역시 동구 샛골로 164-5",
    "lat":37.47699523,
    "lng":126.6452568
  },
  {
    "market_id":"5f062666f76a",
    "name":"동래시장",
    "sido":"부산광역시",
    "sigungu":"동래구",
    "cycle_raw":"매일",
    "cycle_label":"매일",
    "cycle_days":[

    ],
    "type_show":"상설",
    "address":"부산광역시 동래구 동래시장길 14",
    "lat":35.20380978,
    "lng":129.0859348
  },
  {
    "market_id":"2d7bdc9ddd82",
    "name":"만수시장",
    "sido":"인천광역시",
    "sigungu":"남동구",
    "cycle_raw":"매일",
    "cycle_label":"매일",
    "cycle_days":[

    ],
    "type_show":"상설",
    "address":"인천광역시 남동구 만수로27번길 10-11",
    "lat":37.46005013,
    "lng":126.7317927
  },
  {
    "market_id":"97a84edacb58",
    "name":"도마큰시장",
    "sido":"대전광역시",
    "sigungu":"서구",
    "cycle_raw":"매일",
    "cycle_label":"매일",
    "cycle_days":[

    ],
    "type_show":"상설",
    "address":"대전광역시 서구 도마4길 69 (도마큰시장 고객센터)",
    "lat":36.31588924,
    "lng":127.3812125
  },
  {
    "market_id":"8bd270490222",
    "name":"구월도매전통시장",
    "sido":"인천광역시",
    "sigungu":"남동구",
    "cycle_raw":"매일",
    "cycle_label":"매일",
    "cycle_days":[

    ],
    "type_show":"상설",
    "address":"인천광역시 남동구 인하로521번길 10-15",
    "lat":37.44366156,
    "lng":126.7056342
  },
  {
    "market_id":"eaeb22a34616",
    "name":"중앙도매시장",
    "sido":"대전광역시",
    "sigungu":"동구",
    "cycle_raw":"매일",
    "cycle_label":"매일",
    "cycle_days":[

    ],
    "type_show":"상설",
    "address":"대전광역시 동구 대전로 783",
    "lat":36.32955629,
    "lng":127.4331792
  },
  {
    "market_id":"fc1360944914",
    "name":"구월시장",
    "sido":"인천광역시",
    "sigungu":"남동구",
    "cycle_raw":"매일",
    "cycle_label":"매일",
    "cycle_days":[

    ],
    "type_show":"상설",
    "address":"인천광역시 남동구 호구포로 790번길 21-13",
    "lat":37.45336497,
    "lng":126.7202774
  },
  {
    "market_id":"5f23532f60e8",
    "name":"남동산업용품상가",
    "sido":"인천광역시",
    "sigungu":"남동구",
    "cycle_raw":"매일",
    "cycle_label":"매일",
    "cycle_days":[

    ],
    "type_show":"상설",
    "address":"인천광역시 남동구 은청로 4-7",
    "lat":37.40695016,
    "lng":126.693402
  },
  {
    "market_id":"f76f3152ef19",
    "name":"자유도매시장",
    "sido":"대전광역시",
    "sigungu":"동구",
    "cycle_raw":"매일",
    "cycle_label":"매일",
    "cycle_days":[

    ],
    "type_show":"상설",
    "address":"대전광역시 동구 중앙로 200번길 40",
    "lat":36.32923615,
    "lng":127.4320061
  },
  {
    "market_id":"76f934690fd8",
    "name":"용운시장",
    "sido":"대전광역시",
    "sigungu":"동구",
    "cycle_raw":"매일",
    "cycle_label":"매일",
    "cycle_days":[

    ],
    "type_show":"상설",
    "address":"대전광역시 동구 용운로 164",
    "lat":36.32781371,
    "lng":127.460578
  },
  {
    "market_id":"d50ae5b2ae03",
    "name":"칠곡시장",
    "sido":"대구광역시",
    "sigungu":"북구",
    "cycle_raw":"1일+6일",
    "cycle_label":"1·6",
    "cycle_days":[
      1,
      6
    ],
    "type_show":"1·6장",
    "address":"대구광역시 북구 칠곡중앙대로 526",
    "lat":35.94250975,
    "lng":128.5512474
  },
  {
    "market_id":"6ea8e687a528",
    "name":"달서시장",
    "sido":"대구광역시",
    "sigungu":"달서구",
    "cycle_raw":"매일",
    "cycle_label":"매일",
    "cycle_days":[

    ],
    "type_show":"상설",
    "address":"대구광역시 달서구 당산로 27 35",
    "lat":35.83985102,
    "lng":128.5442655
  },
  {
    "market_id":"8d5031ed1e0b",
    "name":"강화터미널상가",
    "sido":"인천광역시",
    "sigungu":"강화군",
    "cycle_raw":"매일",
    "cycle_label":"매일",
    "cycle_days":[

    ],
    "type_show":"상설",
    "address":"인천광역시 강화군 강화읍 중앙로 43",
    "lat":37.73977639,
    "lng":126.4904031
  },
  {
    "market_id":"fe7c60f16cad",
    "name":"강화풍물시장",
    "sido":"인천광역시",
    "sigungu":"강화군",
    "cycle_raw":"2일+7일",
    "cycle_label":"2·7",
    "cycle_days":[
      2,
      7
    ],
    "type_show":"2·7장",
    "address":"인천광역시 강화군 강화읍 중앙로 17-9",
    "lat":37.74141775,
    "lng":126.4928651
  },
  {
    "market_id":"e1bd0d54d778",
    "name":"강화중앙시장(a동b동)",
    "sido":"인천광역시",
    "sigungu":"강화군",
    "cycle_raw":"매일",
    "cycle_label":"매일",
    "cycle_days":[

    ],
    "type_show":"상설",
    "address":"인천광역시 강화군 강화읍 강화대로 429",
    "lat":37.74685651,
    "lng":126.4838644
  },
  {
    "market_id":"6c9800ec0e23",
    "name":"학성종합시장",
    "sido":"울산광역시",
    "sigungu":"중구",
    "cycle_raw":"매일",
    "cycle_label":"매일",
    "cycle_days":[

    ],
    "type_show":"상설",
    "address":"울산광역시 중구 새치로 28",
    "lat":35.55441933,
    "lng":129.3320409
  },
  {
    "market_id":"8dd06acf1678",
    "name":"학성새벽시장",
    "sido":"울산광역시",
    "sigungu":"중구",
    "cycle_raw":"매일",
    "cycle_label":"매일",
    "cycle_days":[

    ],
    "type_show":"상설",
    "address":"울산광역시 중구 새벽시장3길 23",
    "lat":35.55664635,
    "lng":129.3326908
  },
  {
    "market_id":"cf8387a82b64",
    "name":"역전시장",
    "sido":"울산광역시",
    "sigungu":"중구",
    "cycle_raw":"매일",
    "cycle_label":"매일",
    "cycle_days":[

    ],
    "type_show":"상설",
    "address":"울산광역시 중구 구역전길 14",
    "lat":35.55619602,
    "lng":129.3284877
  },
  {
    "market_id":"e56cec140340",
    "name":"구역전시장",
    "sido":"울산광역시",
    "sigungu":"중구",
    "cycle_raw":"매일",
    "cycle_label":"매일",
    "cycle_days":[

    ],
    "type_show":"상설",
    "address":"울산광역시 중구 구역전길 24-2",
    "lat":35.55730561,
    "lng":129.3284205
  },
  {
    "market_id":"a9216488791b",
    "name":"구역전전통시장",
    "sido":"울산광역시",
    "sigungu":"중구",
    "cycle_raw":"매일",
    "cycle_label":"매일",
    "cycle_days":[

    ],
    "type_show":"상설",
    "address":"울산광역시 중구 구역전길 8",
    "lat":35.55590905,
    "lng":129.3279501
  },
  {
    "market_id":"cc4b0760d517",
    "name":"신중앙시장",
    "sido":"울산광역시",
    "sigungu":"중구",
    "cycle_raw":"매일",
    "cycle_label":"매일",
    "cycle_days":[

    ],
    "type_show":"상설",
    "address":"울산광역시 중구 구교로 35",
    "lat":35.55546763,
    "lng":129.3284115
  },
  {
    "market_id":"eac0f56ee592",
    "name":"태화종합시장",
    "sido":"울산광역시",
    "sigungu":"중구",
    "cycle_raw":"5일+10일",
    "cycle_label":"5·10",
    "cycle_days":[
      5,
      10
    ],
    "type_show":"5·10장",
    "address":"울산광역시 중구 화진길 20-4",
    "lat":35.55419984,
    "lng":129.307414
  },
  {
    "market_id":"4f27d9c27b82",
    "name":"우정전통시장",
    "sido":"울산광역시",
    "sigungu":"중구",
    "cycle_raw":"5일+10일",
    "cycle_label":"5·10",
    "cycle_days":[
      5,
      10
    ],
    "type_show":"5·10장",
    "address":"울산광역시 중구 당산4길 21",
    "lat":35.55396087,
    "lng":129.3107259
  },
  {
    "market_id":"c25edadb1ea6",
    "name":"인천종합어시장",
    "sido":"인천광역시",
    "sigungu":"중구",
    "cycle_raw":"매일",
    "cycle_label":"매일",
    "cycle_days":[

    ],
    "type_show":"상설",
    "address":"인천광역시 중구 연안부두로 33번길 37",
    "lat":37.4541313,
    "lng":126.6071645
  },
  {
    "market_id":"9359d1652f6f",
    "name":"신포시장",
    "sido":"인천광역시",
    "sigungu":"중구",
    "cycle_raw":"매일",
    "cycle_label":"매일",
    "cycle_days":[

    ],
    "type_show":"상설",
    "address":"인천광역시 중구 우현로49번길 11-5",
    "lat":37.47146344,
    "lng":126.627806
  },
  {
    "market_id":"900f37db2829",
    "name":"신흥시장",
    "sido":"인천광역시",
    "sigungu":"중구",
    "cycle_raw":"매일",
    "cycle_label":"매일",
    "cycle_days":[

    ],
    "type_show":"상설",
    "address":"인천광역시 중구 도원로 15-1",
    "lat":37.46605786,
    "lng":126.6366385
  },
  {
    "market_id":"3d9424ad1709",
    "name":"백련시장",
    "sido":"서울특별시",
    "sigungu":"서대문구",
    "cycle_raw":"매일",
    "cycle_label":"매일",
    "cycle_days":[

    ],
    "type_show":"상설",
    "address":"서울특별시 서대문구 가재울로6길 53-87",
    "lat":37.57700937,
    "lng":126.9231105
  },
  {
    "market_id":"9383e8e6bb5b",
    "name":"연수구옥련시장",
    "sido":"인천광역시",
    "sigungu":"연수구",
    "cycle_raw":"매일",
    "cycle_label":"매일",
    "cycle_days":[

    ],
    "type_show":"상설",
    "address":"인천광역시 연수구 독배로 40번길 35",
    "lat":37.42461526,
    "lng":126.6468259
  },
  {
    "market_id":"b84670937ba1",
    "name":"망원시장",
    "sido":"서울특별시",
    "sigungu":"마포구",
    "cycle_raw":"매일",
    "cycle_label":"매일",
    "cycle_days":[

    ],
    "type_show":"상설",
    "address":"서울특별시 마포구 망원로8길 7",
    "lat":37.55715742,
    "lng":126.9059507
  },
  {
    "market_id":"56902b969537",
    "name":"남성사계시장",
    "sido":"서울특별시",
    "sigungu":"동작구",
    "cycle_raw":"매일",
    "cycle_label":"매일",
    "cycle_days":[

    ],
    "type_show":"상설",
    "address":"서울특별시 동작구 동작대로29길 8",
    "lat":37.48816723,
    "lng":126.9815693
  },
  {
    "market_id":"d2ec05314334",
    "name":"인천강남시장",
    "sido":"인천광역시",
    "sigungu":"서구",
    "cycle_raw":"매일",
    "cycle_label":"매일",
    "cycle_days":[

    ],
    "type_show":"상설",
    "address":"인천광역시 서구 강남로 14",
    "lat":37.51122049,
    "lng":126.6719915
  },
  {
    "market_id":"fa578a617c39",
    "name":"답십리현대시장",
    "sido":"서울특별시",
    "sigungu":"동대문구",
    "cycle_raw":"매일",
    "cycle_label":"매일",
    "cycle_days":[

    ],
    "type_show":"상설",
    "address":"서울특별시 동대문구 전농로 4길 38",
    "lat":37.56677553,
    "lng":127.058644
  },
  {
    "market_id":"2f014a351612",
    "name":"은행나무시장",
    "sido":"서울특별시",
    "sigungu":"금천구",
    "cycle_raw":"매일",
    "cycle_label":"매일",
    "cycle_days":[

    ],
    "type_show":"상설",
    "address":"서울특별시 금천구 금하로25길 9",
    "lat":37.4513186,
    "lng":126.9093496
  },
  {
    "market_id":"de6863ff0c19",
    "name":"조원동펭귄시장",
    "sido":"서울특별시",
    "sigungu":"관악구",
    "cycle_raw":"매일",
    "cycle_label":"매일",
    "cycle_days":[

    ],
    "type_show":"상설",
    "address":"서울특별시 관악구 조원로16길 27",
    "lat":37.48314387,
    "lng":126.9114142
  },
  {
    "market_id":"17d8aba1f433",
    "name":"일신시장(부일종합시장)",
    "sido":"인천광역시",
    "sigungu":"부평구",
    "cycle_raw":"매일",
    "cycle_label":"매일",
    "cycle_days":[

    ],
    "type_show":"상설",
    "address":"인천광역시 부평구 경인로 1118번길 14-7",
    "lat":37.48471821,
    "lng":126.7432825
  },
  {
    "market_id":"b8d06787d1de",
    "name":"봉천현대시장",
    "sido":"서울특별시",
    "sigungu":"관악구",
    "cycle_raw":"매일",
    "cycle_label":"매일",
    "cycle_days":[

    ],
    "type_show":"상설",
    "address":"서울특별시 관악구 양녕로 49",
    "lat":37.48643059,
    "lng":126.946586
  },
  {
    "market_id":"f644c4630f9b",
    "name":"둔촌역전통시장",
    "sido":"서울특별시",
    "sigungu":"강동구",
    "cycle_raw":"매일",
    "cycle_label":"매일",
    "cycle_days":[

    ],
    "type_show":"상설",
    "address":"서울특별시 강동구 풍성로58길 34",
    "lat":37.52748326,
    "lng":127.1351577
  },
  {
    "market_id":"1846c369a89b",
    "name":"부평깡시장",
    "sido":"인천광역시",
    "sigungu":"부평구",
    "cycle_raw":"매일",
    "cycle_label":"매일",
    "cycle_days":[

    ],
    "type_show":"상설",
    "address":"인천광역시 부평구 주부토로32번길 25",
    "lat":37.49788036,
    "lng":126.7265347
  },
  {
    "market_id":"3f471202db03",
    "name":"해운대시장",
    "sido":"부산광역시",
    "sigungu":"해운대구",
    "cycle_raw":"매일",
    "cycle_label":"매일",
    "cycle_days":[

    ],
    "type_show":"상설",
    "address":"부산광역시 해운대구 구남로41번길 22-1",
    "lat":35.16140447,
    "lng":129.1623121
  },
  {
    "market_id":"354ec77d04a8",
    "name":"우동종합상가시장",
    "sido":"부산광역시",
    "sigungu":"해운대구",
    "cycle_raw":"매일",
    "cycle_label":"매일",
    "cycle_days":[

    ],
    "type_show":"상설",
    "address":"부산광역시 해운대구 해운대로383번길 37-10",
    "lat":35.17067916,
    "lng":129.1388637
  },
  {
    "market_id":"5808debdf697",
    "name":"학익시장",
    "sido":"인천광역시",
    "sigungu":"미추홀구",
    "cycle_raw":"매일",
    "cycle_label":"매일",
    "cycle_days":[

    ],
    "type_show":"상설",
    "address":"인천광역시 미추홀구 한나루로 400",
    "lat":37.44350822,
    "lng":126.6649646
  },
  {
    "market_id":"d00e8336e5b3",
    "name":"인천남부종합시장",
    "sido":"인천광역시",
    "sigungu":"미추홀구",
    "cycle_raw":"매일",
    "cycle_label":"매일",
    "cycle_days":[

    ],
    "type_show":"상설",
    "address":"인천광역시 미추홀구 인하로 274-30",
    "lat":37.44737486,
    "lng":126.6783959
  },
  {
    "market_id":"20ee646761a1",
    "name":"신기시장",
    "sido":"인천광역시",
    "sigungu":"미추홀구",
    "cycle_raw":"매일",
    "cycle_label":"매일",
    "cycle_days":[

    ],
    "type_show":"상설",
    "address":"인천광역시 미추홀구 미추홀대로547",
    "lat":37.44621321,
    "lng":126.6786492
  },
  {
    "market_id":"2e4b01093826",
    "name":"신평골목시장",
    "sido":"부산광역시",
    "sigungu":"사하구",
    "cycle_raw":"매일",
    "cycle_label":"매일",
    "cycle_days":[

    ],
    "type_show":"상설",
    "address":"부산광역시 사하구 다대로134번길 27",
    "lat":35.09107824,
    "lng":128.9771235
  },
  {
    "market_id":"98225b650bde",
    "name":"토지금고시장",
    "sido":"인천광역시",
    "sigungu":"미추홀구",
    "cycle_raw":"매일",
    "cycle_label":"매일",
    "cycle_days":[

    ],
    "type_show":"상설",
    "address":"인천광역시 미추홀구 낙섬중로38번길 5",
    "lat":37.45154621,
    "lng":126.6378049
  },
  {
    "market_id":"91909d5a6323",
    "name":"개금골목시장",
    "sido":"부산광역시",
    "sigungu":"부산진구",
    "cycle_raw":"매일",
    "cycle_label":"매일",
    "cycle_days":[

    ],
    "type_show":"상설",
    "address":"부산광역시 부산진구 가야공원로 14번길 85",
    "lat":35.15183238,
    "lng":129.0247972
  },
  {
    "market_id":"512a19cdbc8f",
    "name":"인천용남시장",
    "sido":"인천광역시",
    "sigungu":"미추홀구",
    "cycle_raw":"매일",
    "cycle_label":"매일",
    "cycle_days":[

    ],
    "type_show":"상설",
    "address":"인천광역시 미추홀구 인주대로 266번길17-1",
    "lat":37.45189911,
    "lng":126.6658426
  },
  {
    "market_id":"517f23faa149",
    "name":"중앙시장",
    "sido":"인천광역시",
    "sigungu":"동구",
    "cycle_raw":"매일",
    "cycle_label":"매일",
    "cycle_days":[

    ],
    "type_show":"상설",
    "address":"인천광역시 동구 중앙로 68",
    "lat":37.47535505,
    "lng":126.6333376
  },
  {
    "market_id":"a411f083c8e3",
    "name":"송현자유시장",
    "sido":"인천광역시",
    "sigungu":"동구",
    "cycle_raw":"매일",
    "cycle_label":"매일",
    "cycle_days":[

    ],
    "type_show":"상설",
    "address":"인천광역시 동구 중앙로 82",
    "lat":37.4757769,
    "lng":126.6328155
  },
  {
    "market_id":"61d4ce6813d2",
    "name":"중앙식료시장",
    "sido":"전라남도",
    "sigungu":"목포시",
    "cycle_raw":"매일",
    "cycle_label":"매일",
    "cycle_days":[

    ],
    "type_show":"상설",
    "address":"전라남도 목포시 삼일로13번길 18-2",
    "lat":34.79403892,
    "lng":126.3817975
  },
  {
    "market_id":"7e551cc5b763",
    "name":"목포종합수산시장",
    "sido":"전라남도",
    "sigungu":"목포시",
    "cycle_raw":"매일",
    "cycle_label":"매일",
    "cycle_days":[

    ],
    "type_show":"상설",
    "address":"전라남도 목포시 해안로 265-4",
    "lat":34.7877699,
    "lng":126.3898749
  },
  {
    "market_id":"fc9bfbeaf5ef",
    "name":"창평전통시장",
    "sido":"전라남도",
    "sigungu":"담양군",
    "cycle_raw":"5일+10일",
    "cycle_label":"5·10",
    "cycle_days":[
      5,
      10
    ],
    "type_show":"5·10장",
    "address":"전라남도 담양군 창평면 사동길 14-25",
    "lat":35.23810491,
    "lng":127.0149083
  },
  {
    "market_id":"749b4a967cb1",
    "name":"영산포풍물시장",
    "sido":"전라남도",
    "sigungu":"나주시",
    "cycle_raw":"5일+10일",
    "cycle_label":"5·10",
    "cycle_days":[
      5,
      10
    ],
    "type_show":"5·10장",
    "address":"전라남도 나주시 풍물시장2길 12-14",
    "lat":34.99199963,
    "lng":126.7072636
  },
  {
    "market_id":"afe47266d939",
    "name":"나주목사고을시장",
    "sido":"전라남도",
    "sigungu":"나주시",
    "cycle_raw":"4일+9일",
    "cycle_label":"4·9",
    "cycle_days":[
      4,
      9
    ],
    "type_show":"4·9장",
    "address":"전라남도 나주시 청동길 14",
    "lat":35.03624663,
    "lng":126.7237639
  },
  {
    "market_id":"4067a23b33e2",
    "name":"다시5일시장",
    "sido":"전라남도",
    "sigungu":"나주시",
    "cycle_raw":"3일+8일",
    "cycle_label":"3·8",
    "cycle_days":[
      3,
      8
    ],
    "type_show":"3·8장",
    "address":"전라남도 나주시 다시면 다시로 168-72",
    "lat":35.01574218,
    "lng":126.635656
  },
  {
    "market_id":"17e167e6f1ae",
    "name":"풍납시장",
    "sido":"서울특별시",
    "sigungu":"송파구",
    "cycle_raw":"매일",
    "cycle_label":"매일",
    "cycle_days":[

    ],
    "type_show":"상설",
    "address":"서울특별시 송파구 바람드리길 15-1",
    "lat":37.53803468,
    "lng":127.1176729
  },
  {
    "market_id":"bdf1e320742d",
    "name":"공산5일시장",
    "sido":"전라남도",
    "sigungu":"나주시",
    "cycle_raw":"1일+6일",
    "cycle_label":"1·6",
    "cycle_days":[
      1,
      6
    ],
    "type_show":"1·6장",
    "address":"전라남도 나주시 공산면 덕음로 3-1",
    "lat":34.94263855,
    "lng":126.6091667
  },
  {
    "market_id":"83503eda980f",
    "name":"지리산나들이장터",
    "sido":"전라남도",
    "sigungu":"구례군",
    "cycle_raw":"매일",
    "cycle_label":"매일",
    "cycle_days":[

    ],
    "type_show":"상설",
    "address":"전라남도 구례군 산동면 지리산온천로 126",
    "lat":35.31147841,
    "lng":127.444496
  },
  {
    "market_id":"6e6196b43282",
    "name":"구례상설시장",
    "sido":"전라남도",
    "sigungu":"구례군",
    "cycle_raw":"매일",
    "cycle_label":"매일",
    "cycle_days":[

    ],
    "type_show":"상설",
    "address":"전라남도 구례군 구례읍 구례1길 45-6",
    "lat":35.20961971,
    "lng":127.465751
  },
  {
    "market_id":"36dcebc357be",
    "name":"구례5일시장",
    "sido":"전라남도",
    "sigungu":"구례군",
    "cycle_raw":"3일+8일",
    "cycle_label":"3·8",
    "cycle_days":[
      3,
      8
    ],
    "type_show":"3·8장",
    "address":"전라남도 구례군 구례읍 5일시장작은길 20",
    "lat":35.21015279,
    "lng":127.4700811
  },
  {
    "market_id":"bc08c8fd6d78",
    "name":"중마시장",
    "sido":"전라남도",
    "sigungu":"광양시",
    "cycle_raw":"매일",
    "cycle_label":"매일",
    "cycle_days":[

    ],
    "type_show":"상설",
    "address":"전라남도 광양시 중마중앙로 88",
    "lat":34.93820196,
    "lng":127.6988477
  },
  {
    "market_id":"9155da81a8e4",
    "name":"옥곡5일시장",
    "sido":"전라남도",
    "sigungu":"광양시",
    "cycle_raw":"4일+9일",
    "cycle_label":"4·9",
    "cycle_days":[
      4,
      9
    ],
    "type_show":"4·9장",
    "address":"전라남도 광양시 옥곡면 큰골1길 2-26",
    "lat":34.98850818,
    "lng":127.7002388
  },
  {
    "market_id":"66ae178c1319",
    "name":"광영상설시장",
    "sido":"전라남도",
    "sigungu":"광양시",
    "cycle_raw":"매일",
    "cycle_label":"매일",
    "cycle_days":[

    ],
    "type_show":"상설",
    "address":"전라남도 광양시 광영시장길 19",
    "lat":34.96144871,
    "lng":127.7203625
  },
  {
    "market_id":"2d76d7fb831e",
    "name":"포방터시장",
    "sido":"서울특별시",
    "sigungu":"서대문구",
    "cycle_raw":"매일",
    "cycle_label":"매일",
    "cycle_days":[

    ],
    "type_show":"상설",
    "address":"서울특별시 서대문구 포방터길 43",
    "lat":37.5986742,
    "lng":126.9488953
  },
  {
    "market_id":"0e11fc754719",
    "name":"옥과5일시장",
    "sido":"전라남도",
    "sigungu":"곡성군",
    "cycle_raw":"4일+9일",
    "cycle_label":"4·9",
    "cycle_days":[
      4,
      9
    ],
    "type_show":"4·9장",
    "address":"전라남도 곡성군 옥과면 리문8길 14",
    "lat":35.2759017,
    "lng":127.1379523
  },
  {
    "market_id":"fd356ec599de",
    "name":"석곡전통시장",
    "sido":"전라남도",
    "sigungu":"곡성군",
    "cycle_raw":"5일+10일",
    "cycle_label":"5·10",
    "cycle_days":[
      5,
      10
    ],
    "type_show":"5·10장",
    "address":"전라남도 곡성군 석곡면 석곡로 70",
    "lat":35.1329487,
    "lng":127.2540916
  },
  {
    "market_id":"5e8c42a6af45",
    "name":"곡성기차마을전통시장",
    "sido":"전라남도",
    "sigungu":"곡성군",
    "cycle_raw":"3일+8일",
    "cycle_label":"3·8",
    "cycle_days":[
      3,
      8
    ],
    "type_show":"3·8장",
    "address":"전라남도 곡성군 곡성읍 곡성로 856",
    "lat":35.27976851,
    "lng":127.2984376
  },
  {
    "market_id":"16e2fe9e57d7",
    "name":"동강전통시장",
    "sido":"전라남도",
    "sigungu":"고흥군",
    "cycle_raw":"1일+6일",
    "cycle_label":"1·6",
    "cycle_days":[
      1,
      6
    ],
    "type_show":"1·6장",
    "address":"전라남도 고흥군 원유둔4길 13-1",
    "lat":34.78037382,
    "lng":127.3349881
  },
  {
    "market_id":"24f7fdc023ce",
    "name":"도화전통시장",
    "sido":"전라남도",
    "sigungu":"고흥군",
    "cycle_raw":"5일+10일",
    "cycle_label":"5·10",
    "cycle_days":[
      5,
      10
    ],
    "type_show":"5·10장",
    "address":"전라남도 고흥군 도화면 동신길 16-6",
    "lat":34.50979056,
    "lng":127.3218794
  },
  {
    "market_id":"3d394c23de54",
    "name":"녹동전통시장",
    "sido":"전라남도",
    "sigungu":"고흥군",
    "cycle_raw":"3일+8일",
    "cycle_label":"3·8",
    "cycle_days":[
      3,
      8
    ],
    "type_show":"3·8장",
    "address":"전라남도 고흥군 도양읍 녹동남촌1길 24",
    "lat":34.52787689,
    "lng":127.13833
  },
  {
    "market_id":"8f45d8d145fb",
    "name":"과역전통시장",
    "sido":"전라남도",
    "sigungu":"고흥군",
    "cycle_raw":"5일+10일",
    "cycle_label":"5·10",
    "cycle_days":[
      5,
      10
    ],
    "type_show":"5·10장",
    "address":"전라남도 고흥군 과역면 시장안길 15",
    "lat":34.67945419,
    "lng":127.3622537
  },
  {
    "market_id":"4db7daff8c2c",
    "name":"고흥전통시장",
    "sido":"전라남도",
    "sigungu":"고흥군",
    "cycle_raw":"4일+9일",
    "cycle_label":"4·9",
    "cycle_days":[
      4,
      9
    ],
    "type_show":"4·9장",
    "address":"전라남도 고흥군 고흥읍 시장길 1",
    "lat":34.60835226,
    "lng":127.2866005
  },
  {
    "market_id":"a23d57af8ead",
    "name":"병영시장",
    "sido":"전라남도",
    "sigungu":"강진군",
    "cycle_raw":"3일+8일",
    "cycle_label":"3·8",
    "cycle_days":[
      3,
      8
    ],
    "type_show":"3·8장",
    "address":"전라남도 강진군 병영면 남삼인길 6",
    "lat":34.71380066,
    "lng":126.8155558
  },
  {
    "market_id":"4f45615ec948",
    "name":"마량시장",
    "sido":"전라남도",
    "sigungu":"강진군",
    "cycle_raw":"3일+8일",
    "cycle_label":"3·8",
    "cycle_days":[
      3,
      8
    ],
    "type_show":"3·8장",
    "address":"전라남도 강진군 마량면 마량5길 11",
    "lat":34.45095924,
    "lng":126.8165817
  },
  {
    "market_id":"7e9b7f5f8580",
    "name":"강진읍시장",
    "sido":"전라남도",
    "sigungu":"강진군",
    "cycle_raw":"4일+9일",
    "cycle_label":"4·9",
    "cycle_days":[
      4,
      9
    ],
    "type_show":"4·9장",
    "address":"전라남도 강진군 강진읍 동성로 17",
    "lat":34.64016086,
    "lng":126.7743152
  },
  {
    "market_id":"d9a290ca4258",
    "name":"여수수산물특화시장",
    "sido":"전라남도",
    "sigungu":"여수시",
    "cycle_raw":"매일",
    "cycle_label":"매일",
    "cycle_days":[

    ],
    "type_show":"상설",
    "address":"전라남도 여수시 남산로 60-31",
    "lat":34.73683093,
    "lng":127.7328973
  },
  {
    "market_id":"8215c0a798b8",
    "name":"해안로건어물상가시장",
    "sido":"전라남도",
    "sigungu":"여수시",
    "cycle_raw":"매일",
    "cycle_label":"매일",
    "cycle_days":[

    ],
    "type_show":"상설",
    "address":"전라남도 여수시 교동남2길 14",
    "lat":34.73953431,
    "lng":127.7345263
  },
  {
    "market_id":"1949a37b9287",
    "name":"중앙시장",
    "sido":"전라남도",
    "sigungu":"여수시",
    "cycle_raw":"매일",
    "cycle_label":"매일",
    "cycle_days":[

    ],
    "type_show":"상설",
    "address":"전라남도 여수시 중앙로 43",
    "lat":34.74059178,
    "lng":127.7325592
  },
  {
    "market_id":"906fac606cea",
    "name":"(주)여수수산시장",
    "sido":"전라남도",
    "sigungu":"여수시",
    "cycle_raw":"매일",
    "cycle_label":"매일",
    "cycle_days":[

    ],
    "type_show":"상설",
    "address":"전라남도 여수시 여객선터미널길 24",
    "lat":34.73813576,
    "lng":127.7317623
  },
  {
    "market_id":"a339dcae89a0",
    "name":"대조시장",
    "sido":"서울특별시",
    "sigungu":"은평구",
    "cycle_raw":"매일",
    "cycle_label":"매일",
    "cycle_days":[

    ],
    "type_show":"상설",
    "address":"서울특별시 은평구 불광로 13",
    "lat":37.60985344,
    "lng":126.9277428
  },
  {
    "market_id":"0263e8ae1ab4",
    "name":"지도 전통시장",
    "sido":"전라남도",
    "sigungu":"신안군",
    "cycle_raw":"3일+8일",
    "cycle_label":"3·8",
    "cycle_days":[
      3,
      8
    ],
    "type_show":"3·8장",
    "address":"전라남도 신안군 지도읍 읍내길 16-20",
    "lat":35.0588198,
    "lng":126.2069832
  },
  {
    "market_id":"ed09d407a868",
    "name":"괴목시장",
    "sido":"전라남도",
    "sigungu":"순천시",
    "cycle_raw":"4일+9일",
    "cycle_label":"4·9",
    "cycle_days":[
      4,
      9
    ],
    "type_show":"4·9장",
    "address":"전라남도 순천시 황전면 괴목길 17",
    "lat":35.10243423,
    "lng":127.4282445
  },
  {
    "market_id":"dbd2144c5d94",
    "name":"순천시아랫장(순천아랫장)",
    "sido":"전라남도",
    "sigungu":"순천시",
    "cycle_raw":"2일+7일",
    "cycle_label":"2·7",
    "cycle_days":[
      2,
      7
    ],
    "type_show":"2·7장",
    "address":"전라남도 순천시 장평로 60",
    "lat":34.94514825,
    "lng":127.496084
  },
  {
    "market_id":"64115c8f0275",
    "name":"주암시장",
    "sido":"전라남도",
    "sigungu":"순천시",
    "cycle_raw":"3일+8일",
    "cycle_label":"3·8",
    "cycle_days":[
      3,
      8
    ],
    "type_show":"3·8장",
    "address":"전라남도 순천시 주암면 주암호길 5-1",
    "lat":35.07598752,
    "lng":127.2352637
  },
  {
    "market_id":"74c55bd87110",
    "name":"승주시장",
    "sido":"전라남도",
    "sigungu":"순천시",
    "cycle_raw":"1일+6일",
    "cycle_label":"1·6",
    "cycle_days":[
      1,
      6
    ],
    "type_show":"1·6장",
    "address":"전라남도 순천시 승주읍 승주장길 14",
    "lat":35.01315903,
    "lng":127.387664
  },
  {
    "market_id":"b0a774060077",
    "name":"웃장",
    "sido":"전라남도",
    "sigungu":"순천시",
    "cycle_raw":"5일+10일",
    "cycle_label":"5·10",
    "cycle_days":[
      5,
      10
    ],
    "type_show":"5·10장",
    "address":"전라남도 순천시 북문길 40",
    "lat":34.95864147,
    "lng":127.4850305
  },
  {
    "market_id":"48ae42461d26",
    "name":"역전시장",
    "sido":"전라남도",
    "sigungu":"순천시",
    "cycle_raw":"매일",
    "cycle_label":"매일",
    "cycle_days":[

    ],
    "type_show":"상설",
    "address":"전라남도 순천시 역전장길 9",
    "lat":34.94374833,
    "lng":127.5033333
  },
  {
    "market_id":"695ac37d60a6",
    "name":"중앙시장",
    "sido":"전라남도",
    "sigungu":"순천시",
    "cycle_raw":"매일",
    "cycle_label":"매일",
    "cycle_days":[

    ],
    "type_show":"상설",
    "address":"전라남도 순천시 중앙시장길 18",
    "lat":34.95326194,
    "lng":127.4846047
  },
  {
    "market_id":"6d9f38accbaf",
    "name":"조성5일시장",
    "sido":"전라남도",
    "sigungu":"보성군",
    "cycle_raw":"5일+10일",
    "cycle_label":"5·10",
    "cycle_days":[
      5,
      10
    ],
    "type_show":"5·10장",
    "address":"전라남도 보성군 조성면 조성로 90-6",
    "lat":34.80647615,
    "lng":127.2452824
  },
  {
    "market_id":"85b8569a9767",
    "name":"복내5일시장",
    "sido":"전라남도",
    "sigungu":"보성군",
    "cycle_raw":"4일+9일",
    "cycle_label":"4·9",
    "cycle_days":[
      4,
      9
    ],
    "type_show":"4·9장",
    "address":"전라남도 보성군 복내면 송재로 1838-12",
    "lat":34.89370035,
    "lng":127.1331421
  },
  {
    "market_id":"ee3541596e15",
    "name":"보성매일시장",
    "sido":"전라남도",
    "sigungu":"보성군",
    "cycle_raw":"매일",
    "cycle_label":"매일",
    "cycle_days":[

    ],
    "type_show":"상설",
    "address":"전라남도 보성군 보성읍 신흥길 9",
    "lat":34.76817918,
    "lng":127.0806162
  },
  {
    "market_id":"b4935ee043ad",
    "name":"녹차골보성향토시장(보성읍5일시장)",
    "sido":"전라남도",
    "sigungu":"보성군",
    "cycle_raw":"2일+7일",
    "cycle_label":"2·7",
    "cycle_days":[
      2,
      7
    ],
    "type_show":"2·7장",
    "address":"전라남도 보성군 보성읍 현충로 42-1",
    "lat":34.76564839,
    "lng":127.0772384
  },
  {
    "market_id":"669cc8becf19",
    "name":"벌교매일시장",
    "sido":"전라남도",
    "sigungu":"보성군",
    "cycle_raw":"매일",
    "cycle_label":"매일",
    "cycle_days":[

    ],
    "type_show":"상설",
    "address":"전라남도 보성군 벌교읍 시장2길 10-41",
    "lat":34.84300877,
    "lng":127.3459893
  },
  {
    "market_id":"5ebecc71fe23",
    "name":"벌교전통시장",
    "sido":"전라남도",
    "sigungu":"보성군",
    "cycle_raw":"4일+9일",
    "cycle_label":"4·9",
    "cycle_days":[
      4,
      9
    ],
    "type_show":"4·9장",
    "address":"전라남도 보성군 벌교읍 시장1길 10",
    "lat":34.84493134,
    "lng":127.3450789
  },
  {
    "market_id":"e0aaae02dcd4",
    "name":"일로전통시장",
    "sido":"전라남도",
    "sigungu":"무안군",
    "cycle_raw":"1일+6일",
    "cycle_label":"1·6",
    "cycle_days":[
      1,
      6
    ],
    "type_show":"1·6장",
    "address":"전라남도 무안군 일로읍 시장길 11-22",
    "lat":34.84753364,
    "lng":126.4943339
  },
  {
    "market_id":"f3c74eb875ba",
    "name":"용산용문시장",
    "sido":"서울특별시",
    "sigungu":"용산구",
    "cycle_raw":"매일",
    "cycle_label":"매일",
    "cycle_days":[

    ],
    "type_show":"상설",
    "address":"서울특별시 용산구 효창원로40길 13",
    "lat":37.53661783,
    "lng":126.9597883
  },
  {
    "market_id":"23eb8d89e74e",
    "name":"동부시장",
    "sido":"전라남도",
    "sigungu":"목포시",
    "cycle_raw":"매일",
    "cycle_label":"매일",
    "cycle_days":[

    ],
    "type_show":"상설",
    "address":"전라남도 목포시 영산로257번길 14",
    "lat":34.80467356,
    "lng":126.3936914
  },
  {
    "market_id":"b740878f4e7a",
    "name":"항동시장",
    "sido":"전라남도",
    "sigungu":"목포시",
    "cycle_raw":"매일",
    "cycle_label":"매일",
    "cycle_days":[

    ],
    "type_show":"상설",
    "address":"전라남도 목포시 수강로12번길 2",
    "lat":34.78600878,
    "lng":126.3856159
  },
  {
    "market_id":"f0f84587058a",
    "name":"청호시장",
    "sido":"전라남도",
    "sigungu":"목포시",
    "cycle_raw":"매일",
    "cycle_label":"매일",
    "cycle_days":[

    ],
    "type_show":"상설",
    "address":"전라남도 목포시 석현로 28",
    "lat":34.81537749,
    "lng":126.4245916
  },
  {
    "market_id":"7e513bb6a9f5",
    "name":"신중앙시장",
    "sido":"전라남도",
    "sigungu":"목포시",
    "cycle_raw":"매일",
    "cycle_label":"매일",
    "cycle_days":[

    ],
    "type_show":"상설",
    "address":"전라남도 목포시 원산중앙로 51",
    "lat":34.81025124,
    "lng":126.3775235
  },
  {
    "market_id":"674e84f58992",
    "name":"자유시장",
    "sido":"전라남도",
    "sigungu":"목포시",
    "cycle_raw":"매일",
    "cycle_label":"매일",
    "cycle_days":[

    ],
    "type_show":"상설",
    "address":"전라남도 목포시 자유로 122",
    "lat":34.79292001,
    "lng":126.4030678
  },
  {
    "market_id":"23aaf4c09441",
    "name":"정남진장흥토요시장",
    "sido":"전라남도",
    "sigungu":"장흥군",
    "cycle_raw":"2일+7일",
    "cycle_label":"2·7",
    "cycle_days":[
      2,
      7
    ],
    "type_show":"2·7장",
    "address":"전라남도 장흥군 장흥읍 토요시장1길 53",
    "lat":34.67727214,
    "lng":126.903159
  },
  {
    "market_id":"6bd03e630940",
    "name":"장평시장",
    "sido":"전라남도",
    "sigungu":"장흥군",
    "cycle_raw":"1일+6일",
    "cycle_label":"1·6",
    "cycle_days":[
      1,
      6
    ],
    "type_show":"1·6장",
    "address":"전라남도 장흥군 장평면 장택길 13",
    "lat":34.77539717,
    "lng":126.9778669
  },
  {
    "market_id":"db9f10485b43",
    "name":"용산시장",
    "sido":"전라남도",
    "sigungu":"장흥군",
    "cycle_raw":"1일+6일",
    "cycle_label":"1·6",
    "cycle_days":[
      1,
      6
    ],
    "type_show":"1·6장",
    "address":"전라남도 장흥군 용산면 용인길 4",
    "lat":34.61490641,
    "lng":126.9153133
  },
  {
    "market_id":"10f5ce9d29ea",
    "name":"대덕읍전통시장(대덕시장)",
    "sido":"전라남도",
    "sigungu":"장흥군",
    "cycle_raw":"5일+10일",
    "cycle_label":"5·10",
    "cycle_days":[
      5,
      10
    ],
    "type_show":"5·10장",
    "address":"전라남도 장흥군 대덕읍 거정2길 10",
    "lat":34.49944415,
    "lng":126.8871414
  },
  {
    "market_id":"5a43bf09cd0f",
    "name":"천관산관광시장",
    "sido":"전라남도",
    "sigungu":"장흥군",
    "cycle_raw":"3일+8일",
    "cycle_label":"3·8",
    "cycle_days":[
      3,
      8
    ],
    "type_show":"3·8장",
    "address":"전라남도 장흥군 관산읍 칠관로 1559-4",
    "lat":34.56277107,
    "lng":126.9370717
  },
  {
    "market_id":"a56bec7d0130",
    "name":"황룡시장",
    "sido":"전라남도",
    "sigungu":"장성군",
    "cycle_raw":"4일+9일",
    "cycle_label":"4·9",
    "cycle_days":[
      4,
      9
    ],
    "type_show":"4·9장",
    "address":"전라남도 장성군 황룡면 삼월길 5",
    "lat":35.2916867,
    "lng":126.7738864
  },
  {
    "market_id":"9cc14ffa9b7f",
    "name":"사창시장",
    "sido":"전라남도",
    "sigungu":"장성군",
    "cycle_raw":"2일+7일",
    "cycle_label":"2·7",
    "cycle_days":[
      2,
      7
    ],
    "type_show":"2·7장",
    "address":"전라남도 장성군 삼계면 사창로 81-2",
    "lat":35.26039872,
    "lng":126.6630702
  },
  {
    "market_id":"fd0d7d755909",
    "name":"사거리시장",
    "sido":"전라남도",
    "sigungu":"장성군",
    "cycle_raw":"1일+6일",
    "cycle_label":"1·6",
    "cycle_days":[
      1,
      6
    ],
    "type_show":"1·6장",
    "address":"전라남도 장성군 북이면 사남북길 22",
    "lat":35.42767379,
    "lng":126.8072694
  },
  {
    "market_id":"5f283a0d12e0",
    "name":"완도중앙시장",
    "sido":"전라남도",
    "sigungu":"완도군",
    "cycle_raw":"매일",
    "cycle_label":"매일",
    "cycle_days":[

    ],
    "type_show":"상설",
    "address":"전라남도 완도군 완도읍 장보고대로 282-1",
    "lat":34.31446812,
    "lng":126.7552341
  },
  {
    "market_id":"3db9dc9956ff",
    "name":"완도남양시장(구 완도종합시장)",
    "sido":"전라남도",
    "sigungu":"완도군",
    "cycle_raw":"5일+10일",
    "cycle_label":"5·10",
    "cycle_days":[
      5,
      10
    ],
    "type_show":"5·10장",
    "address":"전라남도 완도군 완도읍 개포로56번길 16-4",
    "lat":34.31651727,
    "lng":126.7477207
  },